Id,Time(seconds),Time(text),Latitude,Longitude,FlightMode,Altitude(feet),Altitude(meters),VpsAltitude(feet),VpsAltitude(meters),HSpeed(mph),HSpeed(m/s),GpsSpeed(mph),GpsSpeed(m/s),HomeDistance(feet),HomeDistance(meters),HomeLatitude,HomeLongitude,GpsCount,GpsLevel,BatteryPower(%),BatteryVoltage,BatteryVoltageDeviation,BatteryCell1Voltage,BatteryCell2Voltage,BatteryCell3Voltage,VelocityX,VelocityY,VelocityZ,Pitch,Roll,Yaw,Yaw(360),RcAileron,RcElevator,RcGyro,RcRudder,RcThrottle,NonGpsError,GoHomeStatus,AppTip,AppWarning,AppMessage
1,0,0m 0s,41.58314415,-109.29515841,P-GPS,0.0,0.0,0.3,0.1,0.0,0.0,0.0,0.0,0.0,0.0,0,0,18,5,0,12.786,0.005,4.263,4.264,4.259,0,0,0,-3.4,-0.4,-47.6,312.4,1684,364,1024,364,364,,,,,
2,0.2,0m 0.2s,41.58314418,-109.29515838,Starting Motors,0.0,0.0,0.3,0.1,0.0,0.0,0.0,0.0,0.0,0.0,0,0,18,5,0,12.786,0.005,4.263,4.264,4.259,0,0,0,-3.4,-0.4,-47.6,312.4,1684,364,1024,364,364,,,,,
3,0.3,0m 0.3s,41.58314416,-109.29515837,Starting Motors,0.0,0.0,0.3,0.1,0.0,0.0,0.0,0.0,0.0,0.0,0,0,18,5,0,12.786,0.005,4.263,4.264,4.259,0,0,0,-3.4,-0.4,-47.6,312.4,1684,364,1024,364,364,,,,,
4,0.4,0m 0.4s,41.58314416,-109.29515837,Starting Motors,0.0,0.0,0.3,0.1,0.0,0.0,0.0,0.0,0.0,0.0,0,0,18,5,0,12.786,0.005,4.263,4.264,4.259,0,0,0,-3.5,-0.4,-47.6,312.4,1684,364,1024,561,364,,,,,
5,0.5,0m 0.5s,41.58314418,-109.29515838,Starting Motors,0.0,0.0,0.3,0.1,0.0,0.0,0.0,0.0,0.0,0.0,0,0,18,5,0,12.786,0.005,4.263,4.264,4.259,0,0,0,-3.6,-0.5,-47.6,312.4,1024,1024,1024,1024,1024,,,,,
6,0.6,0m 0.6s,41.58314419,-109.29515839,Starting Motors,0.0,0.0,0.3,0.1,0.0,0.0,0.0,0.0,0.0,0.0,0,0,18,5,0,12.786,0.005,4.263,4.264,4.259,0,0,0,-3.6,-0.5,-47.6,312.4,1024,1024,1024,1024,1024,,,,,
7,0.7,0m 0.7s,41.5831442,-109.29515839,Starting Motors,0.0,0.0,0.3,0.1,0.0,0.0,0.0,0.0,0.0,0.0,0,0,18,5,0,12.786,0.005,4.263,4.264,4.259,0,0,0,-3.6,-0.6,-47.6,312.4,1024,1024,1024,1024,1024,,,,,
8,0.8,0m 0.8s,41.58314422,-109.29515838,Starting Motors,0.0,0.0,0.3,0.1,0.0,0.0,0.0,0.0,0.0,0.0,0,0,18,5,0,12.786,0.005,4.263,4.264,4.259,0,0,0,-3.6,-0.6,-47.6,312.4,1024,1024,1024,1024,1024,,,,,
9,0.9,0m 0.9s,41.58314426,-109.29515836,Starting Motors,0.0,0.0,0.3,0.1,0.0,0.0,0.0,0.0,0.0,0.0,0,0,18,5,0,12.786,0.005,4.263,4.264,4.259,0,0,0,-3.6,-0.6,-47.6,312.4,1024,1024,1024,1024,1024,,,,,
10,1,0m 1s,41.58314429,-109.29515834,Starting Motors,0.0,0.0,0.3,0.1,0.0,0.0,0.0,0.0,0.4,0.1,41.5831434,-109.29515936,18,5,99,12.786,0.005,4.263,4.264,4.259,0,0,0,-3.6,-0.5,-47.5,312.5,1024,1024,1024,1024,1024,,,,,
11,1.1,0m 1.1s,41.5831443,-109.29515832,Starting Motors,0.0,0.0,0.3,0.1,0.0,0.0,0.0,0.0,0.4,0.1,41.5831434,-109.29515936,18,5,99,12.786,0.005,4.263,4.264,4.259,0,0,0,-3.6,-0.6,-47.5,312.5,1024,1024,1024,1024,1024,,,,,
12,1.2,0m 1.2s,41.58314432,-109.29515829,Starting Motors,0.0,0.0,0.3,0.1,0.0,0.0,0.0,0.0,0.4,0.1,41.5831434,-109.29515936,18,5,99,12.786,0.005,4.263,4.264,4.259,0,0,0,-3.6,-0.6,-47.5,312.5,1024,1024,1024,1024,1024,,,Motors Started,,
13,1.3,0m 1.3s,41.58314432,-109.29515826,Manual Takeoff,0.0,0.0,0.3,0.1,0.0,0.0,0.0,0.0,0.4,0.1,41.5831434,-109.29515936,18,5,99,12.786,0.005,4.263,4.264,4.259,0,0,0,-3.6,-0.5,-47.5,312.5,1024,1024,1024,1024,1024,,,,,
14,1.4,0m 1.4s,41.58314435,-109.29515822,Manual Takeoff,0.0,0.0,0.3,0.1,0.0,0.0,0.0,0.0,0.5,0.2,41.5831434,-109.29515936,18,5,99,12.786,0.005,4.263,4.264,4.259,0,0,0,-3.6,-0.5,-47.5,312.5,1024,1024,1024,1024,1024,,,,,
15,1.5,0m 1.5s,41.58314438,-109.29515821,Manual Takeoff,0.0,0.0,0.3,0.1,0.0,0.0,0.0,0.0,0.5,0.2,41.5831434,-109.29515936,18,5,99,12.786,0.005,4.263,4.264,4.259,0,0,0,-3.6,-0.6,-47.5,312.5,1024,1024,1024,1024,1024,,,,,
16,1.6,0m 1.6s,41.5831444,-109.29515819,Manual Takeoff,0.0,0.0,0.3,0.1,0.0,0.0,0.0,0.0,0.4,0.1,41.5831434,-109.29515936,18,5,99,12.786,0.005,4.263,4.264,4.259,0,0,0,-3.6,-0.6,-47.5,312.5,1024,1024,1024,1024,1024,,,,,
17,1.7,0m 1.7s,41.58314442,-109.29515819,Manual Takeoff,0.0,0.0,0.3,0.1,0.0,0.0,0.0,0.0,0.4,0.1,41.5831434,-109.29515936,18,5,99,12.786,0.005,4.263,4.264,4.259,0,0,0,-3.6,-0.6,-47.5,312.5,1024,1024,1024,1024,1024,,,,,
18,1.8,0m 1.8s,41.58314443,-109.29515817,Manual Takeoff,0.0,0.0,0.3,0.1,0.0,0.0,0.0,0.0,0.4,0.1,41.5831434,-109.29515936,18,5,99,12.786,0.005,4.263,4.264,4.259,0,0,0,-3.6,-0.6,-47.5,312.5,1024,1024,1024,1024,1024,,,,,
19,2,0m 2s,41.58314443,-109.29515811,Manual Takeoff,0.0,0.0,0.3,0.1,0.0,0.0,0.0,0.0,0.4,0.1,41.5831434,-109.29515936,18,5,99,12.786,0.005,4.263,4.264,4.259,0,0,0,-3.6,-0.6,-47.5,312.5,1024,1024,1024,1024,1024,,,,,
20,2.1,0m 2.1s,41.58314443,-109.29515809,Manual Takeoff,0.0,0.0,0.3,0.1,0.0,0.0,0.0,0.0,0.4,0.1,41.5831434,-109.29515936,18,5,99,12.739,0.004,4.248,4.247,4.244,0,0,0,-3.6,-0.5,-47.5,312.5,1024,1024,1024,1024,1024,,,,,
21,2.2,0m 2.2s,41.58314442,-109.29515808,Manual Takeoff,0.0,0.0,0.3,0.1,0.0,0.0,0.0,0.0,0.4,0.1,41.5831434,-109.29515936,18,5,99,12.739,0.004,4.248,4.247,4.244,0,0,0,-3.6,-0.6,-47.5,312.5,1024,1024,1024,1024,1024,,,,,
22,2.3,0m 2.3s,41.58314441,-109.29515808,Manual Takeoff,0.0,0.0,0.3,0.1,0.2,0.1,0.0,0.0,0.4,0.1,41.5831434,-109.29515936,18,5,99,12.739,0.004,4.248,4.247,4.244,-0.1,0,0,-3.6,-0.6,-47.5,312.5,1024,1024,1024,1024,1024,,,,,
23,2.4,0m 2.4s,41.5831444,-109.29515808,Manual Takeoff,0.0,0.0,0.3,0.1,0.0,0.0,0.0,0.0,0.4,0.1,41.5831434,-109.29515936,18,5,99,12.739,0.004,4.248,4.247,4.244,0,0,0,-3.6,-0.6,-47.5,312.5,1024,1024,1024,1024,1024,,,,,
24,2.6,0m 2.6s,41.58314438,-109.29515809,Manual Takeoff,0.0,0.0,0.3,0.1,0.0,0.0,0.0,0.0,0.5,0.2,41.5831434,-109.29515936,18,5,99,12.739,0.004,4.248,4.247,4.244,0,0,0,-3.6,-0.6,-47.5,312.5,1024,1024,1024,1024,1024,,,,,
25,2.7,0m 2.7s,41.58314438,-109.29515809,Manual Takeoff,0.0,0.0,0.3,0.1,0.0,0.0,0.0,0.0,0.5,0.2,41.5831434,-109.29515936,18,5,99,12.739,0.004,4.248,4.247,4.244,0,0,0,-3.6,-0.5,-47.5,312.5,1024,1024,1024,1024,1024,,,,,
26,2.8,0m 2.8s,41.58314437,-109.2951581,Manual Takeoff,0.0,0.0,0.3,0.1,0.0,0.0,0.0,0.0,0.4,0.1,41.5831434,-109.29515936,18,5,99,12.739,0.004,4.248,4.247,4.244,0,0,0,-3.6,-0.6,-47.5,312.5,1024,1024,1024,1024,1024,,,,,
27,2.9,0m 2.9s,41.58314437,-109.29515811,Manual Takeoff,0.0,0.0,0.3,0.1,0.0,0.0,0.0,0.0,0.4,0.1,41.5831434,-109.29515936,18,5,99,12.739,0.004,4.248,4.247,4.244,0,0,0,-3.6,-0.6,-47.5,312.5,1024,1024,1024,1024,1024,,,,,
28,3,0m 3s,41.58314434,-109.29515812,Manual Takeoff,0.0,0.0,0.3,0.1,0.0,0.0,1.1,0.5,0.4,0.1,41.5831434,-109.29515936,18,5,99,12.739,0.004,4.248,4.247,4.244,0,0,0,-3.6,-0.6,-47.5,312.5,1024,1024,1024,1024,1024,,,,,
29,3.1,0m 3.1s,41.5831443,-109.29515813,Manual Takeoff,0.0,0.0,0.3,0.1,0.2,0.1,0.0,0.0,0.4,0.1,41.5831434,-109.29515936,18,5,99,12.753,0.005,4.253,4.252,4.248,-0.1,0,0,-3.6,-0.5,-47.5,312.5,1024,1024,1024,1024,1024,,,,,
30,3.2,0m 3.2s,41.58314427,-109.29515814,Manual Takeoff,0.0,0.0,0.3,0.1,0.2,0.1,0.0,0.0,0.3,0.1,41.5831434,-109.29515936,18,5,99,12.753,0.005,4.253,4.252,4.248,-0.1,0,0,-3.6,-0.6,-47.5,312.5,1024,1024,1024,1024,1024,,,,,
31,3.3,0m 3.3s,41.58314425,-109.29515814,Manual Takeoff,0.0,0.0,0.3,0.1,0.0,0.0,0.0,0.0,0.4,0.1,41.5831434,-109.29515936,18,5,99,12.753,0.005,4.253,4.252,4.248,0,0,0,-3.6,-0.6,-47.5,312.5,1024,1024,1024,1024,1024,,,,,
32,3.4,0m 3.4s,41.58314423,-109.29515815,Manual Takeoff,0.0,0.0,0.3,0.1,0.0,0.0,0.0,0.0,0.4,0.1,41.5831434,-109.29515936,18,5,99,12.753,0.005,4.253,4.252,4.248,0,0,0,-3.6,-0.6,-47.5,312.5,1024,1024,1024,1024,1024,,,,,
33,3.5,0m 3.5s,41.58314422,-109.29515815,Manual Takeoff,0.0,0.0,0.3,0.1,0.0,0.0,0.0,0.0,0.4,0.1,41.5831434,-109.29515936,18,5,99,12.753,0.005,4.253,4.252,4.248,0,0,0,-3.6,-0.6,-47.5,312.5,1024,1024,1024,1024,1024,,,,,
34,3.6,0m 3.6s,41.58314419,-109.29515815,Manual Takeoff,0.0,0.0,0.3,0.1,0.0,0.0,0.0,0.0,0.4,0.1,41.5831434,-109.29515936,18,5,99,12.753,0.005,4.253,4.252,4.248,0,0,0,-3.6,-0.6,-47.4,312.6,1024,1024,1024,1024,1024,,,,,
35,3.7,0m 3.7s,41.58314415,-109.29515815,Manual Takeoff,0.0,0.0,0.3,0.1,0.0,0.0,0.0,0.0,0.4,0.1,41.5831434,-109.29515936,18,5,99,12.753,0.005,4.253,4.252,4.248,0,0,0,-3.6,-0.6,-47.4,312.6,1024,1024,1024,1024,1024,,,,,
36,3.8,0m 3.8s,41.58314412,-109.29515817,Manual Takeoff,0.0,0.0,0.3,0.1,0.0,0.0,0.0,0.0,0.4,0.1,41.5831434,-109.29515936,18,5,99,12.753,0.005,4.253,4.252,4.248,0,0,0,-3.5,-0.6,-47.4,312.6,1024,1024,1024,1024,1024,,,,,
37,3.9,0m 3.9s,41.5831441,-109.2951582,Manual Takeoff,0.0,0.0,0.3,0.1,0.2,0.1,1.1,0.5,0.4,0.1,41.5831434,-109.29515936,18,5,99,12.753,0.005,4.253,4.252,4.248,-0.1,0,0,-3.6,-0.6,-47.4,312.6,1024,1024,1024,1024,1024,,,,,
38,4,0m 4s,41.58314409,-109.29515824,Manual Takeoff,0.0,0.0,0.3,0.1,0.0,0.0,0.0,0.0,0.4,0.1,41.5831434,-109.29515936,18,5,99,12.753,0.005,4.253,4.252,4.248,0,0,0,-3.6,-0.6,-47.4,312.6,1024,1024,1024,1024,1024,,,,,
39,4.1,0m 4.1s,41.58314408,-109.29515825,Manual Takeoff,0.0,0.0,0.3,0.1,0.0,0.0,0.0,0.0,0.4,0.1,41.5831434,-109.29515936,18,5,99,12.753,0.005,4.253,4.252,4.248,0,0,0,-3.6,-0.6,-47.4,312.6,1024,1024,1024,1024,1024,,,,,
40,4.2,0m 4.2s,41.58314407,-109.29515827,Manual Takeoff,0.0,0.0,0.3,0.1,0.0,0.0,0.0,0.0,0.4,0.1,41.5831434,-109.29515936,18,5,99,12.753,0.005,4.253,4.252,4.248,0,0,0,-3.6,-0.6,-47.4,312.6,1024,1024,1024,1024,1024,,,,,
41,4.3,0m 4.3s,41.58314407,-109.29515828,Manual Takeoff,0.0,0.0,0.3,0.1,0.0,0.0,0.0,0.0,0.4,0.1,41.5831434,-109.29515936,18,5,99,12.753,0.005,4.253,4.252,4.248,0,0,0,-3.6,-0.6,-47.4,312.6,1024,1024,1024,1024,1024,,,,,
42,4.4,0m 4.4s,41.58314406,-109.29515831,Manual Takeoff,0.0,0.0,0.3,0.1,0.0,0.0,0.0,0.0,0.4,0.1,41.5831434,-109.29515936,18,5,99,12.753,0.005,4.253,4.252,4.248,0,0,0,-3.6,-0.6,-47.4,312.6,1024,1024,1024,1024,1185,,,,,
43,4.5,0m 4.5s,41.58314403,-109.29515835,Manual Takeoff,0.0,0.0,0.3,0.1,0.0,0.0,0.0,0.0,0.4,0.1,41.5831434,-109.29515936,18,5,99,12.751,0.006,4.253,4.251,4.247,0,0,0,-3.6,-0.6,-47.4,312.6,1024,1024,1024,1024,1684,,,,,
44,4.6,0m 4.6s,41.583144,-109.29515838,Manual Takeoff,0.0,0.0,0.3,0.1,0.0,0.0,0.0,0.0,0.3,0.1,41.5831434,-109.29515936,18,5,99,12.751,0.006,4.253,4.251,4.247,0,0,0,-3.6,-0.5,-47.4,312.6,1024,1024,1024,1071,1684,,,,,
45,4.7,0m 4.7s,41.58314399,-109.2951584,Manual Takeoff,0.0,0.0,0.3,0.1,0.0,0.0,0.0,0.0,0.3,0.1,41.5831434,-109.29515936,18,5,99,12.751,0.006,4.253,4.251,4.247,0,0,0,-3.6,-0.6,-47.4,312.6,1024,1024,1024,1036,1684,,,,,
46,4.8,0m 4.8s,41.58314398,-109.29515841,Manual Takeoff,0.0,0.0,0.3,0.1,0.0,0.0,0.0,0.0,0.4,0.1,41.5831434,-109.29515936,18,5,99,12.751,0.006,4.253,4.251,4.247,0,0,0,-3.6,-0.6,-47.4,312.6,1024,1024,1024,1028,1684,,,,,
47,4.9,0m 4.9s,41.58314397,-109.29515842,Manual Takeoff,0.0,0.0,0.3,0.1,0.0,0.0,0.0,0.0,0.4,0.1,41.5831434,-109.29515936,18,5,99,12.751,0.006,4.253,4.251,4.247,0,0,0,-4.1,-0.5,-47.1,312.9,1024,1024,1024,1027,1684,,,,,
48,5,0m 5s,41.58314398,-109.29515848,Manual Takeoff,0.0,0.0,0.3,0.1,0.0,0.0,0.0,0.0,0.4,0.1,41.5831434,-109.29515936,18,5,99,12.751,0.006,4.253,4.251,4.247,0,0,0,-6.3,-0.2,-46.8,313.2,1024,1024,1024,1028,1684,,,,,
49,5.1,0m 5.1s,41.58314404,-109.29515866,Manual Takeoff,0.0,0.0,0.7,0.2,0.2,0.1,0.0,0.0,0.4,0.1,41.5831434,-109.29515936,18,5,99,12.751,0.006,4.253,4.251,4.247,0,-0.1,-0.2,-7,0.2,-46.8,313.2,1024,1024,1024,1031,1684,,,,,
50,5.2,0m 5.2s,41.58314416,-109.29515901,P-GPS,0.0,0.0,0.7,0.2,0.7,0.3,0.0,0.0,0.0,0.0,41.5831434,-109.29515936,18,5,99,12.751,0.006,4.253,4.251,4.247,0.1,-0.3,-0.3,-3.5,0.4,-47,313,1024,1024,1024,1043,1684,,,,,
51,5.3,0m 5.3s,41.58314434,-109.29515946,P-GPS,0.0,0.0,0.7,0.2,1.0,0.5,1.1,0.5,0.3,0.1,41.5831434,-109.29515936,18,5,99,12.751,0.006,4.253,4.251,4.247,0.2,-0.4,-0.4,0.6,0.8,-47.1,312.9,1024,1024,1024,1052,1684,,,,,
52,5.4,0m 5.4s,41.58314452,-109.29515997,P-GPS,0.0,0.0,1.0,0.3,1.0,0.5,0.0,0.0,0.4,0.1,41.5831434,-109.29515936,18,5,99,12.751,0.006,4.253,4.251,4.247,0.2,-0.4,-0.6,4,0.5,-47,313,1024,1024,1024,1069,1684,,,,,
53,5.5,0m 5.5s,41.58314464,-109.29516044,P-GPS,0.3,0.1,1.3,0.4,0.7,0.3,1.1,0.5,0.5,0.2,41.5831434,-109.29515936,18,5,99,12.751,0.006,4.253,4.251,4.247,0.1,-0.3,-0.9,4.5,0.8,-47.2,312.8,1024,1024,1024,1024,1684,,,,,
54,5.6,0m 5.6s,41.58314462,-109.29516086,P-GPS,0.7,0.2,1.6,0.5,0.4,0.2,0.0,0.0,0.6,0.2,41.5831434,-109.29515936,18,5,99,12.751,0.006,4.253,4.251,4.247,0,-0.2,-1.2,3.5,1.5,-47.4,312.6,1024,1024,1024,1209,1684,,,,,
55,5.7,0m 5.7s,41.5831445,-109.29516119,P-GPS,1.3,0.4,,,0.3,0.1,1.1,0.5,0.6,0.2,41.5831434,-109.29515936,18,5,99,12.751,0.006,4.253,4.251,4.247,-0.1,-0.1,-1.6,1.7,2.5,-47.3,312.7,1024,1024,1024,1024,1684,,,,,
56,5.8,0m 5.8s,41.58314432,-109.29516145,P-GPS,2.0,0.6,,,0.3,0.1,0.0,0.0,0.6,0.2,41.5831434,-109.29515936,18,5,99,12.751,0.006,4.253,4.251,4.247,-0.1,-0.1,-2,0.5,2.4,-47.4,312.6,1024,1024,1024,1024,1024,,,,,
57,5.9,0m 5.9s,41.58314414,-109.29516163,P-GPS,2.6,0.8,,,0.3,0.1,0.0,0.0,0.6,0.2,41.5831434,-109.29515936,18,5,99,12.751,0.006,4.253,4.251,4.247,-0.1,-0.1,-2.4,0,2.8,-47.3,312.7,1024,1024,1024,1024,1024,,,,,
58,6,0m 6s,41.58314391,-109.29516172,P-GPS,3.6,1.1,,,0.2,0.1,1.1,0.5,0.6,0.2,41.5831434,-109.29515936,17,5,99,12.751,0.006,4.253,4.251,4.247,-0.1,0,-2.5,0.3,3.1,-47.3,312.7,1024,1024,1024,1024,1024,,,,,
59,6.1,0m 6.1s,41.58314369,-109.29516177,P-GPS,4.3,1.3,4.6,1.4,0.2,0.1,0.0,0.0,0.6,0.2,41.5831434,-109.29515936,17,5,99,12.751,0.006,4.253,4.251,4.247,-0.1,0,-2.5,0.5,3.5,-47.2,312.8,1024,1024,1024,1024,1024,,,,,
60,6.2,0m 6.2s,41.58314348,-109.29516177,P-GPS,5.2,1.6,5.2,1.6,0.2,0.1,0.0,0.0,0.9,0.3,41.58314402,-109.2951586,18,5,99,12.751,0.006,4.253,4.251,4.247,-0.1,0,-2.3,0.2,3.6,-47.2,312.8,1024,1024,1024,1024,1024,,,,,Home Point Updated
61,6.3,0m 6.3s,41.58314329,-109.29516178,P-GPS,5.9,1.8,5.9,1.8,0.2,0.1,0.0,0.0,1.0,0.3,41.58314402,-109.2951586,18,5,99,12.356,0.033,4.14,4.107,4.109,-0.1,0,-2,0,3.7,-47.2,312.8,1024,1024,1024,1024,1024,,,,,
62,6.4,0m 6.4s,41.58314309,-109.29516178,P-GPS,6.6,2.0,6.6,2.0,0.2,0.1,0.0,0.0,0.9,0.3,41.58314402,-109.2951586,18,5,99,12.356,0.033,4.14,4.107,4.109,-0.1,0,-1.7,-0.4,3.4,-47.2,312.8,1024,1024,1024,1024,1024,,,,,
63,6.5,0m 6.5s,41.58314288,-109.29516179,P-GPS,7.2,2.2,6.9,2.1,0.2,0.1,0.0,0.0,1.0,0.3,41.58314402,-109.2951586,18,5,99,12.356,0.033,4.14,4.107,4.109,-0.1,0,-1.3,-1,3.6,-47.3,312.7,1024,1024,1024,1024,1024,,,,,
64,6.6,0m 6.6s,41.58314266,-109.2951618,P-GPS,7.5,2.3,7.2,2.2,0.2,0.1,0.0,0.0,1.0,0.3,41.58314402,-109.2951586,18,5,99,12.356,0.033,4.14,4.107,4.109,-0.1,0,-0.9,-1.3,3.7,-47.3,312.7,1024,1024,1024,1024,1024,,,,,
65,6.7,0m 6.7s,41.58314244,-109.29516182,P-GPS,7.5,2.3,7.5,2.3,0.2,0.1,0.0,0.0,1.1,0.3,41.58314402,-109.2951586,18,5,99,12.356,0.033,4.14,4.107,4.109,-0.1,0,-0.5,-1.8,3.8,-47.3,312.7,1024,1024,1024,1024,1024,,,,,
66,6.8,0m 6.8s,41.58314228,-109.29516178,P-GPS,7.9,2.4,7.5,2.3,0.2,0.1,0.0,0.0,1.1,0.3,41.58314402,-109.2951586,18,5,99,12.356,0.033,4.14,4.107,4.109,-0.1,0,-0.2,-2.4,3.6,-47.3,312.7,1024,1024,1024,1024,1024,,,,,
67,7,0m 7s,41.58314206,-109.29516173,P-GPS,7.9,2.4,7.5,2.3,0.2,0.1,0.0,0.0,1.1,0.3,41.58314402,-109.2951586,18,5,99,12.356,0.033,4.14,4.107,4.109,-0.1,0,0,-2.5,3.4,-47.2,312.8,1024,1024,1024,1024,1024,,,,,
68,7.1,0m 7.1s,41.58314199,-109.29516176,P-GPS,7.9,2.4,7.5,2.3,0.2,0.1,0.0,0.0,1.2,0.4,41.58314402,-109.2951586,18,5,99,12.356,0.033,4.14,4.107,4.109,-0.1,0,0,-2.3,3.5,-47.3,312.7,1024,1024,1024,1024,1024,,,,,
69,7.2,0m 7.2s,41.58314199,-109.2951618,P-GPS,7.9,2.4,7.5,2.3,0.2,0.1,0.0,0.0,1.2,0.4,41.58314402,-109.2951586,18,5,99,12.356,0.033,4.14,4.107,4.109,-0.1,0,0,-2.2,3.6,-47.3,312.7,1024,1024,1024,1024,1024,,,,,
70,7.3,0m 7.3s,41.58314199,-109.29516184,P-GPS,7.5,2.3,7.5,2.3,0.0,0.0,0.0,0.0,1.2,0.4,41.58314402,-109.2951586,18,5,99,12.356,0.033,4.14,4.107,4.109,0,0,0.1,-1.9,3.4,-47.3,312.7,1024,1024,1024,1024,1024,,,,,
71,7.4,0m 7.4s,41.58314204,-109.29516189,P-GPS,7.2,2.2,7.5,2.3,0.0,0.0,0.0,0.0,1.1,0.3,41.58314402,-109.2951586,18,5,99,12.403,0.026,4.15,4.124,4.129,0,0,0.1,-2,3.6,-47.2,312.8,1024,1024,1024,1024,1024,,,,,
72,7.5,0m 7.5s,41.58314207,-109.29516195,P-GPS,7.2,2.2,7.5,2.3,0.0,0.0,0.0,0.0,1.2,0.4,41.58314402,-109.2951586,18,5,99,12.403,0.026,4.15,4.124,4.129,0,0,0.1,-1.5,3.4,-47.2,312.8,1024,1024,1024,1024,1024,,,,,
73,7.6,0m 7.6s,41.58314212,-109.29516198,P-GPS,7.2,2.2,7.5,2.3,0.0,0.0,0.0,0.0,1.1,0.3,41.58314402,-109.2951586,18,5,99,12.403,0.026,4.15,4.124,4.129,0,0,0,-1.2,3.6,-47.2,312.8,1024,1024,1024,1024,1024,,,,,
74,7.7,0m 7.7s,41.58314213,-109.29516199,P-GPS,7.2,2.2,7.5,2.3,0.0,0.0,1.1,0.5,1.2,0.4,41.58314402,-109.2951586,18,5,99,12.403,0.026,4.15,4.124,4.129,0,0,0,-1.3,3.9,-47.2,312.8,1024,1024,1024,1024,1024,,,,,
75,7.8,0m 7.8s,41.58314212,-109.29516199,P-GPS,7.2,2.2,7.5,2.3,0.0,0.0,0.0,0.0,1.1,0.3,41.58314402,-109.2951586,18,5,99,12.403,0.026,4.15,4.124,4.129,0,0,0,-1.5,3.9,-47.2,312.8,1024,1024,1024,1024,1024,,,,,
76,7.9,0m 7.9s,41.58314209,-109.29516199,P-GPS,7.2,2.2,7.2,2.2,0.0,0.0,0.0,0.0,1.2,0.4,41.58314402,-109.2951586,18,5,99,12.403,0.026,4.15,4.124,4.129,0,0,0,-1.7,4,-47.2,312.8,1024,1024,1024,1024,1024,,,,,
77,8,0m 8s,41.58314204,-109.29516199,P-GPS,7.2,2.2,7.5,2.3,0.0,0.0,0.0,0.0,1.2,0.4,41.58314402,-109.2951586,18,5,99,12.403,0.026,4.15,4.124,4.129,0,0,0,-1.8,4,-47.3,312.7,1024,1024,1024,1024,1024,,,,,
78,8.1,0m 8.1s,41.58314199,-109.29516199,P-GPS,7.2,2.2,7.5,2.3,0.0,0.0,0.0,0.0,1.2,0.4,41.58314402,-109.2951586,18,5,99,12.403,0.026,4.15,4.124,4.129,0,0,0,-1.7,3.9,-47.3,312.7,1024,1024,1024,1024,1024,,,,,
79,8.2,0m 8.2s,41.58314194,-109.29516197,P-GPS,7.2,2.2,7.5,2.3,0.0,0.0,0.0,0.0,1.2,0.4,41.58314402,-109.2951586,18,5,99,12.403,0.026,4.15,4.124,4.129,0,0,0,-1.6,4,-47.2,312.8,1024,1024,1024,1024,1024,,,,,
80,8.3,0m 8.3s,41.58314191,-109.29516195,P-GPS,7.2,2.2,7.5,2.3,0.0,0.0,0.0,0.0,1.2,0.4,41.58314402,-109.2951586,18,5,99,12.403,0.026,4.15,4.124,4.129,0,0,0,-1.5,3.7,-47.3,312.7,1024,1024,1024,1024,1024,,,,,
81,8.4,0m 8.4s,41.58314188,-109.29516192,P-GPS,7.2,2.2,7.5,2.3,0.0,0.0,0.0,0.0,1.2,0.4,41.58314402,-109.2951586,18,5,99,12.403,0.026,4.15,4.124,4.129,0,0,0,-1.4,3.4,-47.4,312.6,1024,1024,1024,1024,1024,,,,,
82,8.5,0m 8.5s,41.58314186,-109.29516188,P-GPS,7.2,2.2,7.5,2.3,0.0,0.0,0.0,0.0,1.2,0.4,41.58314402,-109.2951586,18,5,99,12.403,0.026,4.15,4.124,4.129,0,0,0,-1.2,3.3,-47.3,312.7,1024,1024,1024,1024,1024,,,,,
83,8.6,0m 8.6s,41.58314183,-109.29516186,P-GPS,7.2,2.2,7.5,2.3,0.0,0.0,0.0,0.0,1.2,0.4,41.58314402,-109.2951586,18,5,99,12.403,0.026,4.15,4.124,4.129,0,0,0,-1.7,3.4,-47.3,312.7,1024,1024,1024,1024,1024,,,,,
84,8.7,0m 8.7s,41.58314183,-109.29516183,P-GPS,7.2,2.2,7.5,2.3,0.0,0.0,0.0,0.0,1.2,0.4,41.58314402,-109.2951586,18,5,99,12.3,0.032,4.118,4.086,4.096,0,0,0,-2,3.3,-47.3,312.7,995,1024,1024,1024,1024,,,,,
85,8.8,0m 8.8s,41.58314182,-109.2951618,P-GPS,7.5,2.3,7.5,2.3,0.0,0.0,1.1,0.5,1.2,0.4,41.58314402,-109.2951586,18,5,99,12.3,0.032,4.118,4.086,4.096,0,0,0,-1.9,3.2,-47.2,312.8,672,1024,1024,1024,1024,,,,,
86,8.9,0m 8.9s,41.58314182,-109.29516176,P-GPS,7.5,2.3,7.5,2.3,0.0,0.0,1.1,0.5,1.2,0.4,41.58314402,-109.2951586,18,5,99,12.3,0.032,4.118,4.086,4.096,0,0,0,-1.2,0.3,-47.2,312.8,474,1024,1024,1024,1024,,,,,
87,9,0m 9s,41.5831418,-109.29516177,P-GPS,7.5,2.3,7.5,2.3,0.0,0.0,0.0,0.0,1.2,0.4,41.58314402,-109.2951586,18,5,99,12.3,0.032,4.118,4.086,4.096,0,0,0,-1,-7.7,-47.2,312.8,474,1024,1024,1024,1024,,,,,
88,9.1,0m 9.1s,41.58314167,-109.2951619,P-GPS,7.5,2.3,7.5,2.3,0.3,0.1,1.1,0.5,1.2,0.4,41.58314402,-109.2951586,18,5,99,12.3,0.032,4.118,4.086,4.096,-0.1,-0.1,0,-0.5,-11.5,-47.4,312.6,479,1024,1024,1024,1024,,,,,
89,9.2,0m 9.2s,41.58314136,-109.29516223,P-GPS,7.5,2.3,7.5,2.3,1.1,0.5,0.0,0.0,1.4,0.4,41.58314402,-109.2951586,18,5,99,12.3,0.032,4.118,4.086,4.096,-0.4,-0.3,0,-0.6,-13.4,-47.3,312.7,816,1024,1024,1024,1024,,,,,
90,9.3,0m 9.3s,41.58314085,-109.29516276,P-GPS,7.5,2.3,7.5,2.3,1.6,0.7,1.1,0.5,1.6,0.5,41.58314402,-109.2951586,18,5,99,12.3,0.032,4.118,4.086,4.096,-0.6,-0.4,0,-0.8,-10,-47.3,312.7,1023,1024,1024,1024,1024,,,,,
91,9.4,0m 9.4s,41.58314008,-109.29516354,P-GPS,7.5,2.3,7.5,2.3,1.9,0.9,1.8,0.8,2.0,0.6,41.58314402,-109.2951586,18,5,99,12.3,0.032,4.118,4.086,4.096,-0.7,-0.5,0,-0.7,0.3,-47.3,312.7,1024,1024,1024,1024,1024,,,,,
92,9.5,0m 9.5s,41.58313925,-109.29516437,P-GPS,7.5,2.3,7.5,2.3,1.7,0.8,2.4,1.1,2.4,0.7,41.58314402,-109.2951586,18,5,99,12.3,0.032,4.118,4.086,4.096,-0.6,-0.5,0,-0.9,3.4,-47.3,312.7,1024,1024,1024,1024,1024,,,,,
93,9.6,0m 9.6s,41.58313837,-109.2951652,P-GPS,7.5,2.3,7.5,2.3,1.6,0.7,2.6,1.2,2.8,0.8,41.58314402,-109.2951586,18,5,99,12.3,0.032,4.118,4.086,4.096,-0.6,-0.4,0,-0.9,7.8,-47.4,312.6,756,1024,1024,1024,1024,,,,,
94,9.7,0m 9.7s,41.58313758,-109.29516595,P-GPS,7.5,2.3,7.5,2.3,1.6,0.7,2.6,1.2,3.1,0.9,41.58314402,-109.2951586,18,5,99,12.3,0.032,4.118,4.086,4.096,-0.6,-0.4,0,-1.1,8,-47.4,312.6,570,1024,1024,1024,1024,,,,,
95,9.8,0m 9.8s,41.58313688,-109.29516653,P-GPS,7.5,2.3,7.5,2.3,1.4,0.6,2.1,0.9,3.4,1.0,41.58314402,-109.2951586,18,5,99,12.3,0.032,4.118,4.086,4.096,-0.5,-0.4,0,-1,0.2,-47.3,312.7,537,1024,1024,1024,1024,,,,,
96,9.9,0m 9.9s,41.58313625,-109.29516707,P-GPS,7.5,2.3,7.9,2.4,1.7,0.8,2.1,0.9,3.7,1.1,41.58314402,-109.2951586,18,5,99,12.284,0.041,4.121,4.083,4.08,-0.6,-0.5,0,-0.9,-4.4,-47.3,312.7,543,1024,1024,1024,1024,,,,,
97,10,0m 10s,41.5831356,-109.2951676,P-GPS,7.5,2.3,7.9,2.4,2.2,1.0,1.8,0.8,3.9,1.2,41.58314402,-109.2951586,18,5,99,12.284,0.041,4.121,4.083,4.08,-0.8,-0.6,0,-0.8,-6.5,-47.3,312.7,565,1024,1024,1024,1024,,,,,
98,10.1,0m 10.1s,41.5831349,-109.29516826,P-GPS,7.5,2.3,7.9,2.4,2.4,1.1,2.1,0.9,4.2,1.3,41.58314402,-109.2951586,18,5,99,12.284,0.041,4.121,4.083,4.08,-0.8,-0.7,0,-0.8,-7.1,-47.4,312.6,569,1024,1024,1024,1024,,,,,
99,10.2,0m 10.2s,41.5831341,-109.29516903,P-GPS,7.5,2.3,7.9,2.4,2.4,1.1,2.1,0.9,4.6,1.4,41.58314402,-109.2951586,18,5,99,12.284,0.041,4.121,4.083,4.08,-0.8,-0.7,0,-0.8,-7.6,-47.4,312.6,565,1024,1024,1024,1024,,,,,
100,10.3,0m 10.3s,41.58313318,-109.29517,P-GPS,7.5,2.3,7.9,2.4,2.7,1.2,2.6,1.2,5.0,1.5,41.58314402,-109.2951586,18,5,99,12.284,0.041,4.121,4.083,4.08,-0.9,-0.8,0,-0.9,-8.3,-47.4,312.6,565,1024,1024,1024,1024,,,,,
101,10.4,0m 10.4s,41.58313213,-109.29517109,P-GPS,7.5,2.3,7.9,2.4,3.2,1.4,3.2,1.4,5.5,1.7,41.58314402,-109.2951586,18,5,99,12.284,0.041,4.121,4.083,4.08,-1,-1,0,-0.8,-8.7,-47.3,312.7,551,1024,1024,1024,1024,,,,,
102,10.5,0m 10.5s,41.58313096,-109.29517234,P-GPS,7.5,2.3,7.9,2.4,3.6,1.6,3.4,1.5,6.1,1.8,41.58314402,-109.2951586,18,5,99,12.284,0.041,4.121,4.083,4.08,-1.2,-1.1,0,-0.7,-9.2,-47.3,312.7,555,1024,1024,1024,1024,,,,,
103,10.6,0m 10.6s,41.58312965,-109.29517374,P-GPS,7.5,2.3,7.9,2.4,4.0,1.8,4.2,1.9,6.7,2.0,41.58314402,-109.2951586,18,5,99,12.284,0.041,4.121,4.083,4.08,-1.3,-1.2,0.1,-0.6,-10.2,-47.2,312.8,582,1024,1024,1024,1024,,,,,
104,10.7,0m 10.7s,41.58312823,-109.29517531,P-GPS,7.5,2.3,7.9,2.4,4.6,2.1,4.2,1.9,7.3,2.2,41.58314402,-109.2951586,18,5,99,12.284,0.041,4.121,4.083,4.08,-1.5,-1.4,0,-0.6,-9.6,-47.2,312.8,601,1024,1024,1024,1024,,,,,
105,10.8,0m 10.8s,41.58312666,-109.29517701,P-GPS,7.5,2.3,7.9,2.4,4.9,2.2,5.0,2.2,8.1,2.5,41.58314402,-109.2951586,17,5,99,12.284,0.041,4.121,4.083,4.08,-1.6,-1.5,0,-0.4,-7.8,-47.3,312.7,618,1024,1024,1024,1024,,,,,
106,10.9,0m 10.9s,41.583125,-109.29517884,P-GPS,7.5,2.3,8.2,2.5,5.2,2.3,5.2,2.3,8.9,2.7,41.58314402,-109.2951586,17,5,99,12.284,0.041,4.121,4.083,4.08,-1.7,-1.6,0,-0.3,-6.8,-47.3,312.7,670,1024,1024,1024,1024,,,,,
107,11,0m 11s,41.58312321,-109.29518079,P-GPS,7.5,2.3,8.2,2.5,5.5,2.5,5.6,2.5,9.7,3.0,41.58314402,-109.2951586,17,5,99,12.284,0.041,4.121,4.083,4.08,-1.8,-1.7,0,-0.2,-4.7,-47.3,312.7,675,1024,1024,1024,1024,,,,,
108,11.1,0m 11.1s,41.58312135,-109.29518284,P-GPS,7.5,2.3,8.2,2.5,5.9,2.6,5.9,2.6,10.6,3.2,41.58314402,-109.2951586,17,5,99,12.284,0.041,4.121,4.083,4.08,-1.9,-1.8,0,0,-3.5,-47.3,312.7,704,1024,1024,1024,1024,,,,,
109,11.2,0m 11.2s,41.58311944,-109.29518487,P-GPS,7.5,2.3,8.2,2.5,5.9,2.6,6.0,2.7,11.5,3.5,41.58314402,-109.2951586,18,5,99,12.284,0.041,4.121,4.083,4.08,-1.9,-1.8,0,0.1,-1.8,-47.3,312.7,687,1024,1024,1024,1024,,,,,
110,11.3,0m 11.3s,41.58311754,-109.29518691,P-GPS,7.5,2.3,8.5,2.6,5.9,2.6,6.0,2.7,12.4,3.8,41.58314402,-109.2951586,18,5,99,12.284,0.041,4.121,4.083,4.08,-1.9,-1.8,0,0.1,-1.4,-47.3,312.7,692,1024,1024,1024,1024,,,,,
111,11.4,0m 11.4s,41.58311555,-109.29518889,P-GPS,7.5,2.3,8.5,2.6,6.2,2.8,6.0,2.7,13.3,4.0,41.58314402,-109.2951586,18,5,99,12.284,0.041,4.121,4.083,4.08,-2,-1.9,0,0,-0.6,-47.3,312.7,717,1024,1024,1024,1024,,,,,
112,11.5,0m 11.5s,41.58311354,-109.29519089,P-GPS,7.9,2.4,8.5,2.6,6.2,2.8,6.2,2.8,14.2,4.3,41.58314402,-109.2951586,18,5,99,12.284,0.041,4.121,4.083,4.08,-2,-1.9,-0.1,0,0,-47.2,312.8,761,1024,1024,1024,1024,,,,,
113,11.6,0m 11.6s,41.58311153,-109.29519285,P-GPS,7.9,2.4,8.9,2.7,6.2,2.8,6.1,2.7,15.1,4.6,41.58314402,-109.2951586,18,5,99,12.284,0.041,4.121,4.083,4.08,-2,-1.9,-0.1,0,1.1,-47.2,312.8,942,1024,1024,1024,1024,,,,,
114,11.7,0m 11.7s,41.58310957,-109.29519483,P-GPS,7.9,2.4,8.9,2.7,6.2,2.8,6.2,2.8,16.0,4.9,41.58314402,-109.2951586,18,5,99,12.284,0.041,4.121,4.083,4.08,-2,-1.9,0,-0.3,2.7,-47.3,312.7,823,1024,1024,1024,1024,,,,,
115,11.8,0m 11.8s,41.58310765,-109.29519674,P-GPS,8.2,2.5,8.9,2.7,5.9,2.6,6.1,2.7,16.9,5.1,41.58314402,-109.2951586,18,5,99,12.262,0.03,4.103,4.073,4.086,-1.9,-1.8,0,-0.3,3.7,-47.2,312.8,787,1024,1024,1024,1024,,,,,
116,11.9,0m 11.9s,41.58310579,-109.29519864,P-GPS,8.2,2.5,8.9,2.7,5.9,2.6,5.8,2.6,17.7,5.4,41.58314402,-109.2951586,18,5,99,12.262,0.03,4.103,4.073,4.086,-1.9,-1.8,0,-0.3,3.3,-47.3,312.7,791,1024,1024,1024,1024,,,,,
117,12,0m 12s,41.58310402,-109.29520041,P-GPS,8.2,2.5,8.9,2.7,5.9,2.6,5.6,2.5,18.5,5.6,41.58314402,-109.2951586,18,5,99,12.262,0.03,4.103,4.073,4.086,-1.9,-1.8,0,-0.2,3.3,-47.3,312.7,812,1024,1024,1024,1024,,,,,
118,12.1,0m 12.1s,41.58310229,-109.29520218,P-GPS,8.2,2.5,8.9,2.7,5.5,2.5,5.6,2.5,19.3,5.9,41.58314402,-109.2951586,18,5,99,12.262,0.03,4.103,4.073,4.086,-1.8,-1.7,0,-0.2,3.9,-47.2,312.8,774,1024,1024,1024,1024,,,,,
119,12.2,0m 12.2s,41.58310066,-109.29520386,P-GPS,8.2,2.5,8.9,2.7,5.5,2.5,5.2,2.3,20.1,6.1,41.58314402,-109.2951586,18,5,99,12.262,0.03,4.103,4.073,4.086,-1.8,-1.7,0,-0.2,3.6,-47.2,312.8,806,1024,1024,1024,1024,,,,,
120,12.4,0m 12.4s,41.58309751,-109.29520719,P-GPS,8.2,2.5,8.9,2.7,5.2,2.3,5.0,2.2,21.5,6.6,41.58314402,-109.2951586,18,5,99,12.262,0.03,4.103,4.073,4.086,-1.7,-1.6,0,-0.2,4.3,-47.3,312.7,816,1024,1024,1024,1024,,,,,
121,12.5,0m 12.5s,41.58309599,-109.29520882,P-GPS,8.2,2.5,8.9,2.7,5.1,2.3,5.0,2.2,22.2,6.8,41.58314402,-109.2951586,18,5,99,12.262,0.03,4.103,4.073,4.086,-1.6,-1.6,0,-0.1,4.3,-47.3,312.7,799,1024,1024,1024,1024,,,,,
122,12.7,0m 12.7s,41.58309317,-109.2952119,P-GPS,8.2,2.5,9.2,2.8,4.7,2.1,4.6,2.1,23.6,7.2,41.58314402,-109.2951586,18,5,99,12.262,0.03,4.103,4.073,4.086,-1.5,-1.5,0,0,4.1,-47.2,312.8,780,1024,1024,1024,1024,,,,,
123,12.8,0m 12.8s,41.58309184,-109.29521338,P-GPS,8.2,2.5,9.2,2.8,4.7,2.1,4.5,2.0,24.2,7.4,41.58314402,-109.2951586,18,5,99,12.262,0.03,4.103,4.073,4.086,-1.5,-1.5,0,0,4,-47.3,312.7,830,1024,1024,1024,1024,,,,,
124,13,0m 13s,41.58308926,-109.29521622,P-GPS,8.2,2.5,9.2,2.8,4.4,2.0,4.2,1.9,25.4,7.7,41.58314402,-109.2951586,18,5,99,12.257,0.032,4.104,4.072,4.081,-1.4,-1.4,0,0,3.9,-47.4,312.6,778,1024,1024,1024,1024,,,,,
125,13.1,0m 13.1s,41.58308803,-109.29521758,P-GPS,8.2,2.5,9.2,2.8,4.3,1.9,4.1,1.8,26.0,7.9,41.58314402,-109.2951586,18,5,99,12.257,0.032,4.104,4.072,4.081,-1.3,-1.4,0,0.1,3.3,-47.4,312.6,761,1024,1024,1024,1024,,,,,
126,13.2,0m 13.2s,41.58308686,-109.29521894,P-GPS,8.2,2.5,9.2,2.8,4.1,1.8,4.0,1.8,26.6,8.1,41.58314402,-109.2951586,18,5,99,12.257,0.032,4.104,4.072,4.081,-1.3,-1.3,0,0.2,3.4,-47.3,312.7,798,1024,1024,1024,1024,,,,,
127,13.3,0m 13.3s,41.58308569,-109.29522027,P-GPS,8.2,2.5,9.2,2.8,4.0,1.8,4.0,1.8,27.1,8.3,41.58314402,-109.2951586,18,5,99,12.257,0.032,4.104,4.072,4.081,-1.2,-1.3,0,0.2,3.2,-47.3,312.7,881,1024,1024,1024,1024,,,,,
128,13.4,0m 13.4s,41.58308457,-109.29522159,P-GPS,7.9,2.4,9.2,2.8,4.0,1.8,3.7,1.6,27.7,8.4,41.58314402,-109.2951586,18,5,99,12.257,0.032,4.104,4.072,4.081,-1.2,-1.3,0,0.3,4.2,-47.3,312.7,789,1024,1024,1024,1024,,,,,
129,13.5,0m 13.5s,41.58308345,-109.29522281,P-GPS,7.9,2.4,9.2,2.8,3.6,1.6,3.7,1.6,28.2,8.6,41.58314402,-109.2951586,18,5,99,12.257,0.032,4.104,4.072,4.081,-1.1,-1.2,0,0.3,3.3,-47.3,312.7,688,1024,1024,1024,1024,,,,,
130,13.6,0m 13.6s,41.58308239,-109.29522404,P-GPS,7.9,2.4,9.5,2.9,3.6,1.6,3.4,1.5,28.7,8.8,41.58314402,-109.2951586,18,5,99,12.257,0.032,4.104,4.072,4.081,-1.1,-1.2,0,0.2,1.8,-47.3,312.7,730,1024,1024,1024,1024,,,,,
131,13.7,0m 13.7s,41.58308133,-109.29522523,P-GPS,7.9,2.4,9.2,2.8,3.5,1.6,3.4,1.5,29.2,8.9,41.58314402,-109.2951586,18,5,99,12.257,0.032,4.104,4.072,4.081,-1.1,-1.1,0,0.1,0.9,-47.2,312.8,673,1024,1024,1024,1024,,,,,
132,13.8,0m 13.8s,41.58308027,-109.29522645,P-GPS,7.9,2.4,9.2,2.8,3.5,1.6,3.4,1.5,29.7,9.1,41.58314402,-109.2951586,18,5,99,12.257,0.032,4.104,4.072,4.081,-1.1,-1.1,0,0.1,0.4,-47.2,312.8,706,1024,1024,1024,1024,,,,,
133,13.9,0m 13.9s,41.58307917,-109.29522765,P-GPS,7.9,2.4,9.2,2.8,3.5,1.6,3.4,1.5,30.2,9.2,41.58314402,-109.2951586,18,5,99,12.257,0.032,4.104,4.072,4.081,-1.1,-1.1,0,0,1,-47.2,312.8,744,1024,1024,1024,1024,,,,,
134,14,0m 14s,41.58307805,-109.29522889,P-GPS,7.9,2.4,9.2,2.8,3.5,1.6,3.7,1.6,30.8,9.4,41.58314402,-109.2951586,18,5,99,12.257,0.032,4.104,4.072,4.081,-1.1,-1.1,0,0,0.8,-47.2,312.8,774,1024,1024,1024,1024,,,,,
135,14.1,0m 14.1s,41.58307692,-109.2952301,P-GPS,7.9,2.4,9.2,2.8,3.5,1.6,3.7,1.6,31.3,9.5,41.58314402,-109.2951586,18,5,99,12.257,0.032,4.104,4.072,4.081,-1.1,-1.1,0,0,1.3,-47.3,312.7,747,1024,1024,1024,1024,,,,,
136,14.2,0m 14.2s,41.58307578,-109.29523134,P-GPS,7.9,2.4,9.2,2.8,3.3,1.5,3.7,1.6,31.8,9.7,41.58314402,-109.2951586,18,5,99,12.244,0.031,4.098,4.067,4.079,-1.1,-1,0,0,1.2,-47.3,312.7,741,1024,1024,1024,1024,,,,,
137,14.3,0m 14.3s,41.58307463,-109.29523254,P-GPS,7.9,2.4,9.2,2.8,3.3,1.5,3.7,1.6,32.4,9.9,41.58314402,-109.2951586,18,5,99,12.244,0.031,4.098,4.067,4.079,-1.1,-1,0,0,1.1,-47.3,312.7,721,1024,1024,1024,1024,,,,,
138,14.4,0m 14.4s,41.58307345,-109.29523377,P-GPS,7.9,2.4,9.2,2.8,3.5,1.6,3.7,1.6,32.9,10.0,41.58314402,-109.2951586,18,5,99,12.244,0.031,4.098,4.067,4.079,-1.2,-1,0,0,0.9,-47.3,312.7,639,1024,1024,1024,1024,,,,,
139,14.5,0m 14.5s,41.58307226,-109.29523496,P-GPS,7.9,2.4,9.2,2.8,3.6,1.6,3.7,1.6,33.5,10.2,41.58314402,-109.2951586,18,5,98,12.244,0.031,4.098,4.067,4.079,-1.2,-1.1,0,0,-0.2,-47.2,312.8,670,1024,1024,1024,1024,,,,,
140,14.6,0m 14.6s,41.58307104,-109.29523617,P-GPS,7.9,2.4,9.2,2.8,3.6,1.6,3.5,1.6,34.0,10.4,41.58314402,-109.2951586,18,5,98,12.244,0.031,4.098,4.067,4.079,-1.2,-1.1,0,-0.1,-1,-47.2,312.8,758,1024,1024,1024,1024,,,,,
141,14.7,0m 14.7s,41.58306981,-109.29523737,P-GPS,7.9,2.4,9.2,2.8,3.8,1.7,3.7,1.6,34.6,10.5,41.58314402,-109.2951586,18,5,98,12.244,0.031,4.098,4.067,4.079,-1.3,-1.1,0,-0.3,1.7,-47.4,312.6,738,1024,1024,1024,1024,,,,,
142,14.8,0m 14.8s,41.58306859,-109.29523858,P-GPS,7.9,2.4,9.2,2.8,3.8,1.7,3.7,1.6,35.1,10.7,41.58314402,-109.2951586,18,5,98,12.244,0.031,4.098,4.067,4.079,-1.3,-1.1,0,-0.4,1.7,-47.4,312.6,681,1024,1024,1024,1024,,,,,
143,14.9,0m 14.9s,41.58306738,-109.29523975,P-GPS,7.9,2.4,9.2,2.8,3.8,1.7,3.7,1.6,35.7,10.9,41.58314402,-109.2951586,18,5,98,12.244,0.031,4.098,4.067,4.079,-1.3,-1.1,0,-0.3,1.4,-47.3,312.7,690,1024,1024,1024,1024,,,,,
144,15,0m 15s,41.58306619,-109.29524093,P-GPS,7.9,2.4,9.2,2.8,3.8,1.7,3.7,1.6,36.2,11.0,41.58314402,-109.2951586,18,5,98,12.244,0.031,4.098,4.067,4.079,-1.3,-1.1,0,-0.4,1.7,-47.3,312.7,731,1024,1024,1024,1024,,,,,
145,15.1,0m 15.1s,41.583065,-109.29524209,P-GPS,7.9,2.4,9.2,2.8,3.6,1.6,3.5,1.6,36.7,11.2,41.58314402,-109.2951586,18,5,98,12.244,0.031,4.098,4.067,4.079,-1.2,-1.1,0,-0.6,1.7,-47.3,312.7,728,1024,1024,1024,1024,,,,,
146,15.2,0m 15.2s,41.58306385,-109.29524323,P-GPS,7.9,2.4,9.2,2.8,3.5,1.6,3.7,1.6,37.3,11.4,41.58314402,-109.2951586,18,5,98,12.244,0.031,4.098,4.067,4.079,-1.2,-1,0,-0.5,2.3,-47.4,312.6,712,1024,1024,1024,1024,,,,,
147,15.3,0m 15.3s,41.58306271,-109.29524432,P-GPS,7.9,2.4,9.2,2.8,3.5,1.6,3.7,1.6,37.8,11.5,41.58314402,-109.2951586,18,5,98,12.244,0.031,4.098,4.067,4.079,-1.2,-1,0,-0.6,2,-47.4,312.6,711,1024,1024,1024,1024,,,,,
148,15.4,0m 15.4s,41.58306159,-109.29524539,P-GPS,7.9,2.4,9.2,2.8,3.5,1.6,3.4,1.5,38.3,11.7,41.58314402,-109.2951586,18,5,98,12.244,0.031,4.098,4.067,4.079,-1.2,-1,0,-0.5,1.9,-47.5,312.5,701,1024,1024,1024,1024,,,,,
149,15.5,0m 15.5s,41.58306045,-109.29524644,P-GPS,7.9,2.4,9.2,2.8,3.5,1.6,3.5,1.6,38.8,11.8,41.58314402,-109.2951586,18,5,98,12.244,0.031,4.098,4.067,4.079,-1.2,-1,0,-0.7,1.5,-47.5,312.5,714,1024,1024,1024,1024,,,,,
150,15.6,0m 15.6s,41.58305934,-109.29524752,P-GPS,7.9,2.4,9.2,2.8,3.5,1.6,3.4,1.5,39.3,12.0,41.58314402,-109.2951586,18,5,98,12.244,0.031,4.098,4.067,4.079,-1.2,-1,0,-0.7,1.7,-47.5,312.5,705,1024,1024,1024,1024,,,,,
151,15.7,0m 15.7s,41.58305822,-109.29524861,P-GPS,7.9,2.4,9.2,2.8,3.3,1.5,3.4,1.5,39.8,12.1,41.58314402,-109.2951586,18,5,98,12.244,0.031,4.098,4.067,4.079,-1.1,-1,0,-0.8,1.6,-47.5,312.5,729,1024,1024,1024,1024,,,,,
152,15.8,0m 15.8s,41.58305714,-109.2952497,P-GPS,7.9,2.4,9.2,2.8,3.5,1.6,3.4,1.5,40.3,12.3,41.58314402,-109.2951586,18,5,98,12.244,0.031,4.098,4.067,4.079,-1.2,-1,0,-0.8,2.1,-47.5,312.5,732,1024,1024,1024,1024,,,,,
153,15.9,0m 15.9s,41.58305608,-109.29525077,P-GPS,7.9,2.4,9.2,2.8,3.5,1.6,3.4,1.5,40.8,12.4,41.58314402,-109.2951586,18,5,98,12.244,0.031,4.098,4.067,4.079,-1.2,-1,0,-0.6,2.1,-47.4,312.6,1024,1024,1024,1024,1024,,,,,
154,16,0m 16s,41.58305503,-109.29525186,P-GPS,7.9,2.4,9.2,2.8,3.3,1.5,3.4,1.5,41.2,12.6,41.58314402,-109.2951586,18,5,98,12.25,0.03,4.1,4.07,4.08,-1.1,-1,0,-0.6,3,-47.4,312.6,1024,1024,1024,1024,1024,,,,,
155,16.1,0m 16.1s,41.583054,-109.29525296,P-GPS,7.9,2.4,9.2,2.8,3.3,1.5,3.4,1.5,41.7,12.7,41.58314402,-109.2951586,18,5,98,12.25,0.03,4.1,4.07,4.08,-1.1,-1,0,-0.5,7.7,-47.4,312.6,1024,1024,1024,1024,1024,,,,,
156,16.2,0m 16.2s,41.58305302,-109.29525401,P-GPS,7.9,2.4,9.2,2.8,3.0,1.4,3.2,1.4,42.2,12.9,41.58314402,-109.2951586,18,5,98,12.25,0.03,4.1,4.07,4.08,-1,-0.9,0,-0.6,13.6,-47.4,312.6,1024,1024,1024,1024,1024,,,,,
157,16.3,0m 16.3s,41.58305216,-109.29525488,P-GPS,7.9,2.4,9.2,2.8,2.5,1.1,3.0,1.3,42.6,13.0,41.58314402,-109.2951586,18,5,98,12.25,0.03,4.1,4.07,4.08,-0.8,-0.8,0,-0.6,14.8,-47.4,312.6,1024,1024,1024,1024,1024,,,,,
158,16.4,0m 16.4s,41.5830515,-109.29525557,P-GPS,7.9,2.4,9.2,2.8,2.1,0.9,2.4,1.1,42.9,13.1,41.58314402,-109.2951586,18,5,98,12.25,0.03,4.1,4.07,4.08,-0.7,-0.6,0,-0.4,15.3,-47.4,312.6,1024,1024,1024,1024,1024,,,,,
159,16.5,0m 16.5s,41.58305101,-109.29525605,P-GPS,7.9,2.4,9.2,2.8,1.4,0.6,2.1,0.9,43.1,13.1,41.58314402,-109.2951586,18,5,98,12.25,0.03,4.1,4.07,4.08,-0.5,-0.4,0,-0.6,15.1,-47.5,312.5,1024,1024,1024,1020,1024,,,,,
160,16.6,0m 16.6s,41.58305075,-109.29525632,P-GPS,7.9,2.4,9.2,2.8,0.9,0.4,1.5,0.7,43.2,13.2,41.58314402,-109.2951586,18,5,98,12.25,0.03,4.1,4.07,4.08,-0.3,-0.3,0,-0.6,12.3,-47.4,312.6,1024,1024,1024,744,1024,,,,,
161,16.7,0m 16.7s,41.5830506,-109.29525643,P-GPS,7.9,2.4,9.2,2.8,0.6,0.3,1.1,0.5,43.3,13.2,41.58314402,-109.2951586,18,5,98,12.25,0.03,4.1,4.07,4.08,-0.2,-0.2,0,-0.6,9.9,-47.4,312.6,1024,1024,1024,1024,1002,,,,,
162,16.8,0m 16.8s,41.58305061,-109.2952564,P-GPS,7.9,2.4,9.2,2.8,0.3,0.1,0.0,0.0,43.3,13.2,41.58314402,-109.2951586,18,5,98,12.25,0.03,4.1,4.07,4.08,-0.1,-0.1,0,-0.7,7.8,-47.5,312.5,1024,1024,1024,736,994,,,,,
163,16.9,0m 16.9s,41.58305067,-109.29525629,P-GPS,8.2,2.5,9.2,2.8,0.0,0.0,0.0,0.0,43.2,13.2,41.58314402,-109.2951586,18,5,98,12.25,0.03,4.1,4.07,4.08,0,0,0,-1,6.1,-47.6,312.4,1024,1024,1024,415,1024,,,,,
164,17,0m 17s,41.5830508,-109.29525614,P-GPS,8.2,2.5,9.2,2.8,0.0,0.0,0.0,0.0,43.2,13.2,41.58314402,-109.2951586,18,5,98,12.25,0.03,4.1,4.07,4.08,0,0,0,-1.1,5,-47.8,312.2,1024,1024,1024,831,1024,,,,,
165,17.1,0m 17.1s,41.5830509,-109.29525597,P-GPS,8.2,2.5,9.2,2.8,0.0,0.0,0.0,0.0,43.1,13.1,41.58314402,-109.2951586,18,5,98,12.25,0.03,4.1,4.07,4.08,0,0,0,-0.8,4.3,-49,311,1024,1024,1024,1024,1024,,,,,
166,17.2,0m 17.2s,41.58305104,-109.29525585,P-GPS,8.2,2.5,9.2,2.8,0.0,0.0,0.0,0.0,43.1,13.1,41.58314402,-109.2951586,18,5,98,12.232,0.032,4.095,4.063,4.074,0,0,0,-0.6,3.7,-51.2,308.8,1024,1024,1024,1024,1024,,,,,
167,17.3,0m 17.3s,41.58305115,-109.29525573,P-GPS,8.2,2.5,8.9,2.7,0.0,0.0,0.0,0.0,43.0,13.1,41.58314402,-109.2951586,18,5,98,12.232,0.032,4.095,4.063,4.074,0,0,0,-0.9,3.1,-52.2,307.8,1024,1024,1024,1024,1024,,,,,
168,17.4,0m 17.4s,41.58305125,-109.29525568,P-GPS,7.9,2.4,8.9,2.7,0.0,0.0,0.0,0.0,43.0,13.1,41.58314402,-109.2951586,18,5,98,12.232,0.032,4.095,4.063,4.074,0,0,0.1,-1,3.1,-52.7,307.3,1024,1024,1024,1024,1024,,,,,
169,17.5,0m 17.5s,41.58305132,-109.2952556,P-GPS,7.9,2.4,8.9,2.7,0.0,0.0,0.0,0.0,42.9,13.1,41.58314402,-109.2951586,18,5,98,12.232,0.032,4.095,4.063,4.074,0,0,0.1,-1.1,2.7,-53,307,1024,1024,1024,1024,1024,,,,,
170,17.7,0m 17.7s,41.58305138,-109.29525558,P-GPS,7.9,2.4,8.9,2.7,0.0,0.0,0.0,0.0,42.9,13.1,41.58314402,-109.2951586,18,5,98,12.232,0.032,4.095,4.063,4.074,0,0,0,-0.2,2.7,-53,307,1024,566,1024,1024,1024,,,,,
171,17.8,0m 17.8s,41.58305137,-109.29525561,P-GPS,7.9,2.4,8.9,2.7,0.0,0.0,0.0,0.0,42.9,13.1,41.58314402,-109.2951586,18,5,98,12.232,0.032,4.095,4.063,4.074,0,0,0,3.6,3.1,-53,307,1024,562,1024,1024,1024,,,,,
172,17.9,0m 17.9s,41.58305133,-109.29525555,P-GPS,7.9,2.4,8.9,2.7,0.2,0.1,0.0,0.0,42.9,13.1,41.58314402,-109.2951586,18,5,98,12.232,0.032,4.095,4.063,4.074,0,0.1,0,8,3.3,-52.8,307.2,1024,405,1024,1024,1024,,,,,
173,18,0m 18s,41.5830512,-109.29525536,P-GPS,7.9,2.4,8.9,2.7,0.5,0.2,0.0,0.0,42.9,13.1,41.58314402,-109.2951586,18,5,98,12.232,0.032,4.095,4.063,4.074,-0.1,0.2,0,11.4,3.1,-52.7,307.3,1024,548,1024,1024,1024,,,,,
174,18.1,0m 18.1s,41.58305098,-109.29525493,P-GPS,7.9,2.4,8.9,2.7,1.0,0.5,1.1,0.5,42.9,13.1,41.58314402,-109.2951586,18,5,98,12.232,0.032,4.095,4.063,4.074,-0.2,0.4,0,16.1,3.1,-52.6,307.4,1024,627,1024,1024,1024,,,,,
175,18.2,0m 18.2s,41.58305058,-109.29525418,P-GPS,7.9,2.4,8.9,2.7,1.6,0.7,1.5,0.7,42.9,13.1,41.58314402,-109.2951586,18,5,98,12.232,0.032,4.095,4.063,4.074,-0.4,0.6,0,10.7,2.9,-52.8,307.2,1024,1024,1024,1024,1024,,,,,
176,18.3,0m 18.3s,41.58305008,-109.29525319,P-GPS,7.9,2.4,8.9,2.7,1.9,0.9,1.8,0.8,42.9,13.1,41.58314402,-109.2951586,18,5,98,12.232,0.032,4.095,4.063,4.074,-0.5,0.7,0,6.5,3.1,-53.1,306.9,1024,1024,1024,1024,1024,,,,,
177,18.4,0m 18.4s,41.58304945,-109.29525198,P-GPS,7.9,2.4,8.9,2.7,2.1,0.9,2.6,1.2,42.9,13.1,41.58314402,-109.2951586,18,5,98,12.232,0.032,4.095,4.063,4.074,-0.5,0.8,0,-0.1,3.1,-53.3,306.7,1024,1024,1024,1024,1024,,,,,
178,18.5,0m 18.5s,41.58304882,-109.29525074,P-GPS,7.9,2.4,8.9,2.7,2.1,0.9,2.6,1.2,42.9,13.1,41.58314402,-109.2951586,18,5,98,12.232,0.032,4.095,4.063,4.074,-0.5,0.8,0,-7.3,3,-53.5,306.5,1024,1024,1024,1024,1024,,,,,
179,18.6,0m 18.6s,41.58304828,-109.29524957,P-GPS,7.9,2.4,8.9,2.7,1.8,0.8,2.6,1.2,42.8,13.1,41.58314402,-109.2951586,18,5,98,12.211,0.032,4.088,4.056,4.067,-0.4,0.7,0,-11.8,2.5,-53.6,306.4,1024,1024,1024,1024,1024,,,,,
180,18.7,0m 18.7s,41.58304792,-109.29524864,P-GPS,7.5,2.3,8.9,2.7,1.3,0.6,2.1,0.9,42.8,13.0,41.58314402,-109.2951586,18,5,98,12.211,0.032,4.088,4.056,4.067,-0.3,0.5,0,-11,2.1,-53.5,306.5,1024,1024,1024,1024,1024,,,,,
181,18.8,0m 18.8s,41.58304773,-109.29524795,P-GPS,7.5,2.3,8.9,2.7,1.0,0.5,1.5,0.7,42.8,13.0,41.58314402,-109.2951586,18,5,98,12.211,0.032,4.088,4.056,4.067,-0.2,0.4,0,-8.5,2.1,-53.4,306.6,1024,1024,1024,1024,1024,,,,,
182,18.9,0m 18.9s,41.58304764,-109.29524746,P-GPS,7.5,2.3,8.9,2.7,0.7,0.3,1.1,0.5,42.7,13.0,41.58314402,-109.2951586,18,5,98,12.211,0.032,4.088,4.056,4.067,-0.1,0.3,0,-6.1,2,-53.2,306.8,1024,1024,1024,1024,728,,,,,
183,19,0m 19s,41.58304766,-109.29524716,P-GPS,7.9,2.4,8.9,2.7,0.7,0.3,1.5,0.7,42.7,13.0,41.58314402,-109.2951586,18,5,98,12.211,0.032,4.088,4.056,4.067,-0.1,0.3,0,-4.3,2.2,-53.3,306.7,1024,1024,1024,1024,431,,,,,
184,19.1,0m 19.1s,41.58304769,-109.29524696,P-GPS,7.9,2.4,8.9,2.7,0.5,0.2,1.1,0.5,42.6,13.0,41.58314402,-109.2951586,18,5,98,12.211,0.032,4.088,4.056,4.067,-0.1,0.2,0.1,-2.8,2.5,-53.2,306.8,1024,1024,1024,1024,391,,,,,
185,19.2,0m 19.2s,41.58304777,-109.29524687,P-GPS,7.5,2.3,8.9,2.7,0.3,0.1,0.0,0.0,42.6,13.0,41.58314402,-109.2951586,18,5,98,12.211,0.032,4.088,4.056,4.067,-0.1,0.1,0.6,-2.3,3.1,-53.1,306.9,1024,1024,1024,1024,364,,,,,
186,19.3,0m 19.3s,41.58304782,-109.29524677,P-GPS,7.2,2.2,8.5,2.6,0.2,0.1,0.0,0.0,42.5,13.0,41.58314402,-109.2951586,18,5,98,12.211,0.032,4.088,4.056,4.067,0,0.1,0.8,-2.8,3.1,-53.2,306.8,1024,1024,1024,1024,443,,,,,
187,19.4,0m 19.4s,41.58304788,-109.29524673,P-GPS,6.9,2.1,8.2,2.5,0.2,0.1,0.0,0.0,42.5,13.0,41.58314402,-109.2951586,18,5,98,12.211,0.032,4.088,4.056,4.067,0,0.1,0.9,-3.3,2.3,-53.1,306.9,1024,1024,1024,1024,364,,,,,
188,19.5,0m 19.5s,41.5830479,-109.29524669,P-GPS,6.6,2.0,7.9,2.4,0.0,0.0,0.0,0.0,42.5,13.0,41.58314402,-109.2951586,18,5,98,12.211,0.032,4.088,4.056,4.067,0,0,1,-2.7,2.5,-53.1,306.9,1024,1024,1024,1024,364,,,,,
189,19.6,0m 19.6s,41.5830479,-109.29524666,P-GPS,6.2,1.9,7.9,2.4,0.0,0.0,0.0,0.0,42.5,13.0,41.58314402,-109.2951586,18,5,98,12.211,0.032,4.088,4.056,4.067,0,0,1.1,-2,2.9,-53.1,306.9,1024,1024,1024,1024,364,,,,,
190,19.7,0m 19.7s,41.58304789,-109.2952466,P-GPS,5.9,1.8,7.5,2.3,0.0,0.0,0.0,0.0,42.5,13.0,41.58314402,-109.2951586,18,5,98,12.211,0.032,4.088,4.056,4.067,0,0,1,-2.1,2.8,-53.1,306.9,1024,1024,1024,1024,364,,,,,
191,19.8,0m 19.8s,41.58304788,-109.29524655,P-GPS,5.6,1.7,7.2,2.2,0.0,0.0,0.0,0.0,42.5,13.0,41.58314402,-109.2951586,18,5,98,12.211,0.032,4.088,4.056,4.067,0,0,0.9,-2.2,2.8,-53.1,306.9,1024,1024,1024,1024,364,,,,,
192,19.9,0m 19.9s,41.5830479,-109.29524652,P-GPS,5.2,1.6,6.9,2.1,0.0,0.0,0.0,0.0,42.5,12.9,41.58314402,-109.2951586,18,5,98,12.211,0.032,4.088,4.056,4.067,0,0,0.9,-1.9,3,-53.2,306.8,1024,1024,1024,1024,364,,,,,
193,20,0m 20s,41.58304794,-109.29524649,P-GPS,5.2,1.6,6.6,2.0,0.0,0.0,0.0,0.0,42.5,12.9,41.58314402,-109.2951586,18,5,98,12.211,0.032,4.088,4.056,4.067,0,0,0.8,-1.8,3.1,-53.1,306.9,1024,1024,1024,1024,364,,,,,
194,20.1,0m 20.1s,41.583048,-109.29524646,P-GPS,4.9,1.5,6.2,1.9,0.0,0.0,0.0,0.0,42.4,12.9,41.58314402,-109.2951586,18,5,98,12.211,0.032,4.088,4.056,4.067,0,0,0.8,-1.7,2.9,-53.2,306.8,1024,1024,1024,1024,364,,,,,
195,20.2,0m 20.2s,41.58304803,-109.29524644,P-GPS,4.6,1.4,5.9,1.8,0.0,0.0,0.0,0.0,42.4,12.9,41.58314402,-109.2951586,18,5,98,12.211,0.032,4.088,4.056,4.067,0,0,0.8,-1.8,2.9,-53.2,306.8,1024,1024,1024,1024,364,,,,,
196,20.3,0m 20.3s,41.58304805,-109.29524646,P-GPS,4.3,1.3,5.9,1.8,0.0,0.0,0.0,0.0,42.4,12.9,41.58314402,-109.2951586,18,5,98,12.211,0.032,4.088,4.056,4.067,0,0,0.8,-1.5,2.9,-53.2,306.8,1024,1024,1024,1024,364,,,,,
197,20.4,0m 20.4s,41.58304803,-109.29524646,P-GPS,3.9,1.2,5.6,1.7,0.0,0.0,1.5,0.7,42.4,12.9,41.58314402,-109.2951586,17,5,98,12.211,0.032,4.088,4.056,4.067,0,0,0.7,-1.3,2.9,-53.2,306.8,1024,1024,1024,1024,364,,,,,
198,20.6,0m 20.6s,41.58304801,-109.29524649,P-GPS,3.6,1.1,4.9,1.5,0.0,0.0,0.0,0.0,42.4,12.9,41.58314402,-109.2951586,17,5,98,12.206,0.032,4.085,4.053,4.068,0,0,0.6,-1.5,3,-53.1,306.9,1024,1024,1024,1024,364,,,,,
199,20.8,0m 20.8s,41.58304809,-109.2952466,P-GPS,3.3,1.0,4.6,1.4,0.0,0.0,0.0,0.0,42.4,12.9,41.58314402,-109.2951586,17,5,98,12.206,0.032,4.085,4.053,4.068,0,0,0.6,-0.9,2.9,-53.1,306.9,1024,1024,1024,1024,364,,,,,
200,21,0m 21s,41.58304823,-109.29524672,P-GPS,3.0,0.9,4.3,1.3,0.0,0.0,0.5,0.2,42.4,12.9,41.58314402,-109.2951586,17,5,98,12.206,0.032,4.085,4.053,4.068,0,0,0.6,-0.4,2.5,-53.1,306.9,1024,1024,1024,1024,364,,,,,
201,21.1,0m 21.1s,41.58304832,-109.29524675,P-GPS,2.6,0.8,4.3,1.3,0.0,0.0,0.0,0.0,42.4,12.9,41.58314402,-109.2951586,17,5,98,12.206,0.032,4.085,4.053,4.068,0,0,0.5,-0.3,2.3,-53.1,306.9,1024,1024,1024,1024,685,,,,,
202,21.2,0m 21.2s,41.58304837,-109.29524677,P-GPS,2.3,0.7,3.9,1.2,0.0,0.0,0.0,0.0,42.4,12.9,41.58314402,-109.2951586,17,5,98,12.206,0.032,4.085,4.053,4.068,0,0,0.6,-0.2,2.2,-53,307,1024,1024,1024,1024,1024,,,,,
203,21.3,0m 21.3s,41.58304839,-109.29524679,P-GPS,2.3,0.7,3.9,1.2,0.0,0.0,1.1,0.5,42.4,12.9,41.58314402,-109.2951586,17,5,98,12.206,0.032,4.085,4.053,4.068,0,0,0.4,-0.9,1.8,-53.2,306.8,1024,1024,1024,1024,1024,,,,,
204,21.4,0m 21.4s,41.58304837,-109.29524681,P-GPS,2.3,0.7,3.9,1.2,0.0,0.0,0.0,0.0,42.4,12.9,41.58314402,-109.2951586,17,5,98,12.206,0.032,4.085,4.053,4.068,0,0,0.1,-1.1,1.4,-53.2,306.8,1024,1024,1024,1024,1024,,,,,
205,21.5,0m 21.5s,41.58304835,-109.29524685,P-GPS,2.3,0.7,3.6,1.1,0.0,0.0,0.0,0.0,42.4,12.9,41.58314402,-109.2951586,17,5,98,12.191,0.034,4.083,4.049,4.059,0,0,0,-0.3,2.1,-53.1,306.9,1024,1024,1024,1024,1024,,,,,
206,21.6,0m 21.6s,41.58304833,-109.29524693,P-GPS,2.3,0.7,3.6,1.1,0.0,0.0,0.0,0.0,42.4,12.9,41.58314402,-109.2951586,18,5,98,12.191,0.034,4.083,4.049,4.059,0,0,0,-0.2,2.9,-53.2,306.8,1024,1024,1024,1024,584,,,,,
207,21.7,0m 21.7s,41.58304835,-109.29524702,P-GPS,2.3,0.7,3.6,1.1,0.0,0.0,0.0,0.0,42.4,12.9,41.58314402,-109.2951586,18,5,98,12.191,0.034,4.083,4.049,4.059,0,0,0,0,2.9,-53.2,306.8,1024,1024,1024,1024,364,,,,,
208,21.8,0m 21.8s,41.58304835,-109.29524709,P-GPS,2.3,0.7,3.9,1.2,0.0,0.0,0.0,0.0,42.4,12.9,41.58314402,-109.2951586,18,5,98,12.191,0.034,4.083,4.049,4.059,0,0,0.1,0.8,2.8,-53.1,306.9,1024,1024,1024,1024,364,,,,,
209,21.9,0m 21.9s,41.58304834,-109.29524713,P-GPS,2.6,0.8,3.6,1.1,0.0,0.0,0.0,0.0,42.4,12.9,41.58314402,-109.2951586,18,5,98,12.191,0.034,4.083,4.049,4.059,0,0,0.2,0.3,3.1,-53.1,306.9,1024,1024,1024,1024,364,,,,,
210,22,0m 22s,41.58304832,-109.29524714,P-GPS,2.3,0.7,3.6,1.1,0.0,0.0,0.0,0.0,42.5,12.9,41.58314402,-109.2951586,18,5,98,12.191,0.034,4.083,4.049,4.059,0,0,0.3,-0.5,2.8,-53.2,306.8,1024,1024,1024,1024,364,,,,,
211,22.1,0m 22.1s,41.58304831,-109.29524713,P-GPS,2.3,0.7,3.6,1.1,0.0,0.0,0.0,0.0,42.5,12.9,41.58314402,-109.2951586,18,5,98,12.191,0.034,4.083,4.049,4.059,0,0,0.4,-1,2.5,-53.2,306.8,1024,1024,1024,1024,364,,,,,
212,22.2,0m 22.2s,41.58304829,-109.29524712,P-GPS,2.3,0.7,3.3,1.0,0.0,0.0,0.0,0.0,42.5,12.9,41.58314402,-109.2951586,18,5,98,12.191,0.034,4.083,4.049,4.059,0,0,0.4,-1,3,-53.2,306.8,1024,1024,1024,1024,364,,,,,
213,22.3,0m 22.3s,41.58304827,-109.29524712,P-GPS,2.0,0.6,3.3,1.0,0.0,0.0,0.0,0.0,42.5,12.9,41.58314402,-109.2951586,18,5,98,12.191,0.034,4.083,4.049,4.059,0,0,0.4,-0.9,3.2,-53.3,306.7,1024,1024,1024,1024,364,,,,,
214,22.4,0m 22.4s,41.58304825,-109.29524713,P-GPS,2.0,0.6,3.0,0.9,0.0,0.0,0.0,0.0,42.5,12.9,41.58314402,-109.2951586,18,5,98,12.191,0.034,4.083,4.049,4.059,0,0,0.3,-0.8,3.4,-53.1,306.9,1024,1024,1024,1024,364,,,,,
215,22.5,0m 22.5s,41.58304823,-109.29524715,P-GPS,2.0,0.6,3.0,0.9,0.0,0.0,0.0,0.0,42.5,12.9,41.58314402,-109.2951586,18,5,98,12.208,0.03,4.086,4.056,4.066,0,0,0.3,-0.9,3.5,-53,307,1024,1024,1024,1024,364,,,,,
216,22.6,0m 22.6s,41.5830482,-109.29524717,P-GPS,1.6,0.5,3.0,0.9,0.0,0.0,0.0,0.0,42.5,13.0,41.58314402,-109.2951586,18,5,98,12.208,0.03,4.086,4.056,4.066,0,0,0.3,-0.9,3.5,-53,307,1024,1024,1024,1024,1024,,,,,
217,22.7,0m 22.7s,41.58304817,-109.29524719,P-GPS,1.6,0.5,2.6,0.8,0.0,0.0,0.0,0.0,42.5,13.0,41.58314402,-109.2951586,18,5,98,12.208,0.03,4.086,4.056,4.066,0,0,0.3,-1.1,3.4,-52.9,307.1,1024,1024,1024,1024,1024,,,,,
218,22.8,0m 22.8s,41.58304815,-109.29524721,P-GPS,1.6,0.5,2.6,0.8,0.0,0.0,0.0,0.0,42.5,13.0,41.58314402,-109.2951586,18,5,98,12.208,0.03,4.086,4.056,4.066,0,0,0.2,-1.7,3.2,-53,307,1024,1024,1024,1024,1024,,,,,
219,22.9,0m 22.9s,41.58304815,-109.29524722,P-GPS,1.6,0.5,2.6,0.8,0.0,0.0,0.0,0.0,42.5,13.0,41.58314402,-109.2951586,18,5,98,12.208,0.03,4.086,4.056,4.066,0,0,0.1,-1.4,2.9,-53.1,306.9,1024,1024,1024,1024,1024,,,,,
220,23,0m 23s,41.58304815,-109.2952472,P-GPS,1.6,0.5,2.6,0.8,0.0,0.0,0.0,0.0,42.5,13.0,41.58314402,-109.2951586,18,5,98,12.208,0.03,4.086,4.056,4.066,0,0,0,-1.2,3.1,-53.1,306.9,1024,1024,1024,1024,1024,,,,,
221,23.1,0m 23.1s,41.58304814,-109.29524716,P-GPS,1.6,0.5,2.6,0.8,0.0,0.0,1.1,0.5,42.5,13.0,41.58314402,-109.2951586,18,5,98,12.208,0.03,4.086,4.056,4.066,0,0,0,-1.4,2.8,-53,307,1024,1024,1024,1024,1024,,,,,
222,23.2,0m 23.2s,41.58304816,-109.29524713,P-GPS,1.6,0.5,2.6,0.8,0.0,0.0,0.0,0.0,42.5,13.0,41.58314402,-109.2951586,18,5,98,12.208,0.03,4.086,4.056,4.066,0,0,0,-1.2,3.4,-53.3,306.7,1024,1024,1024,1024,1024,,,,,
223,23.3,0m 23.3s,41.5830482,-109.29524712,P-GPS,1.6,0.5,2.6,0.8,0.0,0.0,0.0,0.0,42.5,13.0,41.58314402,-109.2951586,18,5,98,12.208,0.03,4.086,4.056,4.066,0,0,0,-1.1,2.9,-53.2,306.8,1024,1024,1024,1024,1024,,,,,
224,23.4,0m 23.4s,41.58304824,-109.29524715,P-GPS,1.6,0.5,2.6,0.8,0.0,0.0,0.0,0.0,42.5,12.9,41.58314402,-109.2951586,18,5,98,12.208,0.03,4.086,4.056,4.066,0,0,0,-1.1,3.5,-53.1,306.9,1024,1024,1024,1024,1024,,,,,
225,23.5,0m 23.5s,41.58304828,-109.2952472,P-GPS,1.6,0.5,2.6,0.8,0.0,0.0,NaN,NaN,42.5,12.9,41.58314402,-109.2951586,18,5,98,12.208,0.03,4.086,4.056,4.066,0,0,0,-1,3.3,-53,307,1024,1024,1024,1024,1024,,,,,
226,23.6,0m 23.6s,41.58304832,-109.29524728,P-GPS,1.6,0.5,2.6,0.8,0.0,0.0,0.0,0.0,42.5,12.9,41.58314402,-109.2951586,18,5,98,12.208,0.03,4.086,4.056,4.066,0,0,0,-0.5,3.3,-53,307,1024,1024,1024,1024,1024,,,,,
227,23.7,0m 23.7s,41.58304834,-109.29524735,P-GPS,1.6,0.5,2.6,0.8,0.0,0.0,0.0,0.0,42.5,12.9,41.58314402,-109.2951586,18,5,98,12.208,0.03,4.086,4.056,4.066,0,0,0,-0.3,3.3,-53,307,1024,1024,1024,1024,1024,,,,,
228,23.8,0m 23.8s,41.58304835,-109.29524741,P-GPS,1.6,0.5,2.6,0.8,0.0,0.0,0.0,0.0,42.5,13.0,41.58314402,-109.2951586,18,5,98,12.174,0.034,4.076,4.042,4.056,0,0,0,-0.6,3.1,-53,307,1024,1024,1024,1024,1024,,,,,
229,23.9,0m 23.9s,41.58304834,-109.29524745,P-GPS,1.6,0.5,2.6,0.8,0.0,0.0,0.0,0.0,42.5,13.0,41.58314402,-109.2951586,18,5,98,12.174,0.034,4.076,4.042,4.056,0,0,0,-0.4,3.7,-53,307,1024,1024,1024,1024,1024,,,,,
230,24,0m 24s,41.58304832,-109.29524747,P-GPS,1.6,0.5,2.6,0.8,0.0,0.0,0.0,0.0,42.5,13.0,41.58314402,-109.2951586,18,5,98,12.174,0.034,4.076,4.042,4.056,0,0,0,-0.8,3.1,-52.9,307.1,1024,1024,1024,1024,1024,,,,,
231,24.1,0m 24.1s,41.58304831,-109.29524746,P-GPS,1.6,0.5,2.6,0.8,0.0,0.0,0.0,0.0,42.5,13.0,41.58314402,-109.2951586,18,5,98,12.174,0.034,4.076,4.042,4.056,0,0,0,-1,3.1,-53,307,1024,1024,1024,1024,1024,,,,,
232,24.2,0m 24.2s,41.58304828,-109.29524744,P-GPS,1.6,0.5,2.6,0.8,0.0,0.0,0.0,0.0,42.5,13.0,41.58314402,-109.2951586,18,5,98,12.174,0.034,4.076,4.042,4.056,0,0,0,-1.2,2.9,-53.1,306.9,1024,1024,1024,1024,1024,,,Tap the screen lightly to focus.,,
233,24.3,0m 24.3s,41.58304827,-109.29524741,P-GPS,1.6,0.5,2.6,0.8,0.0,0.0,0.0,0.0,42.5,13.0,41.58314402,-109.2951586,18,5,98,12.174,0.034,4.076,4.042,4.056,0,0,0,-1.7,2.9,-53.1,306.9,1024,1024,1024,1024,1024,,,,,
234,24.4,0m 24.4s,41.58304825,-109.29524739,P-GPS,1.6,0.5,2.6,0.8,0.0,0.0,0.0,0.0,42.5,13.0,41.58314402,-109.2951586,18,5,98,12.174,0.034,4.076,4.042,4.056,0,0,0,-1.2,3.3,-53.1,306.9,1024,1024,1024,1024,1024,,,,,
235,24.5,0m 24.5s,41.58304825,-109.29524737,P-GPS,1.6,0.5,2.6,0.8,0.0,0.0,0.0,0.0,42.5,13.0,41.58314402,-109.2951586,18,5,98,12.174,0.034,4.076,4.042,4.056,0,0,0,-1.5,3.1,-53.1,306.9,1024,1024,1024,1024,1024,,,,,
236,24.6,0m 24.6s,41.58304824,-109.29524737,P-GPS,1.6,0.5,2.6,0.8,0.0,0.0,0.0,0.0,42.5,13.0,41.58314402,-109.2951586,18,5,98,12.174,0.034,4.076,4.042,4.056,0,0,0,-1.6,3,-53,307,1024,1024,1024,1024,1024,,,,,
237,24.7,0m 24.7s,41.58304823,-109.29524736,P-GPS,1.6,0.5,2.6,0.8,0.0,0.0,0.0,0.0,42.5,13.0,41.58314402,-109.2951586,18,5,98,12.174,0.034,4.076,4.042,4.056,0,0,0,-1.9,2.9,-53,307,1024,1024,1024,1024,1024,,,,,
238,24.8,0m 24.8s,41.58304821,-109.29524735,P-GPS,1.6,0.5,2.6,0.8,0.0,0.0,0.0,0.0,42.5,13.0,41.58314402,-109.2951586,18,5,98,12.174,0.034,4.076,4.042,4.056,0,0,0,-1.9,2.9,-53.1,306.9,1024,1024,1024,1024,1024,,,,,
239,24.9,0m 24.9s,41.58304818,-109.29524733,P-GPS,1.6,0.5,2.6,0.8,0.0,0.0,0.0,0.0,42.5,13.0,41.58314402,-109.2951586,18,5,98,12.174,0.034,4.076,4.042,4.056,0,0,0,-2,3,-53.1,306.9,1024,1024,1024,1024,1024,,,,,
240,25,0m 25s,41.58304815,-109.29524733,P-GPS,1.6,0.5,2.6,0.8,0.0,0.0,0.0,0.0,42.5,13.0,41.58314402,-109.2951586,18,5,98,12.174,0.034,4.076,4.042,4.056,0,0,0,-2,3,-53.1,306.9,1024,1024,1024,1024,1024,,,,,
241,25.1,0m 25.1s,41.58304815,-109.29524734,P-GPS,1.6,0.5,2.6,0.8,0.0,0.0,0.0,0.0,42.5,13.0,41.58314402,-109.2951586,18,5,98,12.174,0.034,4.076,4.042,4.056,0,0,0,-1.9,3,-53,307,1024,1024,1024,1024,1024,,,,,
242,25.3,0m 25.3s,41.58304816,-109.29524738,P-GPS,1.6,0.5,2.6,0.8,0.0,0.0,0.0,0.0,42.5,13.0,41.58314402,-109.2951586,18,5,98,12.174,0.034,4.076,4.042,4.056,0,0,0,-1.8,2.8,-53.1,306.9,1024,1024,1024,1024,1024,,,,,
243,25.4,0m 25.4s,41.58304815,-109.29524742,P-GPS,1.6,0.5,2.6,0.8,0.0,0.0,0.0,0.0,42.5,13.0,41.58314402,-109.2951586,18,5,98,12.174,0.034,4.076,4.042,4.056,0,0,0,-1.6,2.8,-53.1,306.9,1024,1024,1024,1024,1024,,,,,
244,25.6,0m 25.6s,41.58304811,-109.29524751,P-GPS,1.6,0.5,2.6,0.8,0.0,0.0,0.0,0.0,42.6,13.0,41.58314402,-109.2951586,18,5,98,12.174,0.034,4.076,4.042,4.056,0,0,0,-1.4,2.7,-53,307,1024,1024,1024,1024,1024,,,,,
245,25.8,0m 25.8s,41.58304811,-109.29524756,P-GPS,1.6,0.5,2.6,0.8,0.0,0.0,0.0,0.0,42.6,13.0,41.58314402,-109.2951586,18,5,98,12.186,0.034,4.081,4.047,4.058,0,0,0,-1.5,2.6,-53,307,1024,1024,364,1024,1024,,,,,
246,25.9,0m 25.9s,41.58304814,-109.2952476,P-GPS,1.6,0.5,2.6,0.8,0.0,0.0,0.0,0.0,42.6,13.0,41.58314402,-109.2951586,18,5,98,12.186,0.034,4.081,4.047,4.058,0,0,0,-1.5,2.5,-53,307,1024,1024,364,1024,1024,,,,,
247,26,0m 26s,41.58304814,-109.29524762,P-GPS,1.6,0.5,2.6,0.8,0.0,0.0,0.0,0.0,42.6,13.0,41.58314402,-109.2951586,18,5,98,12.186,0.034,4.081,4.047,4.058,0,0,0,-1.6,2.5,-53,307,1024,1024,364,1024,1024,,,,,
248,26.1,0m 26.1s,41.58304813,-109.29524764,P-GPS,1.6,0.5,2.6,0.8,0.0,0.0,0.0,0.0,42.6,13.0,41.58314402,-109.2951586,18,5,98,12.186,0.034,4.081,4.047,4.058,0,0,0,-1.6,2.5,-53,307,1024,1024,364,1024,1024,,,,,
249,26.2,0m 26.2s,41.58304811,-109.29524767,P-GPS,1.6,0.5,2.3,0.7,0.0,0.0,0.0,0.0,42.6,13.0,41.58314402,-109.2951586,18,5,98,12.186,0.034,4.081,4.047,4.058,0,0,0,-1.7,2.4,-53,307,1024,1024,364,1024,1024,,,,,
250,26.3,0m 26.3s,41.5830481,-109.29524772,P-GPS,1.6,0.5,2.3,0.7,0.0,0.0,0.0,0.0,42.6,13.0,41.58314402,-109.2951586,18,5,98,12.186,0.034,4.081,4.047,4.058,0,0,0,-1.4,2.6,-53.1,306.9,1024,1024,364,1024,1024,,,,,
251,26.4,0m 26.4s,41.58304809,-109.29524776,P-GPS,1.6,0.5,2.3,0.7,0.0,0.0,0.0,0.0,42.6,13.0,41.58314402,-109.2951586,18,5,98,12.186,0.034,4.081,4.047,4.058,0,0,0,-1.3,2.4,-53.1,306.9,1024,1024,364,1024,1024,,,,,
252,26.5,0m 26.5s,41.58304809,-109.29524778,P-GPS,1.6,0.5,2.6,0.8,0.0,0.0,0.0,0.0,42.6,13.0,41.58314402,-109.2951586,18,5,98,12.186,0.034,4.081,4.047,4.058,0,0,0,-1.1,2.5,-53.1,306.9,1024,1024,364,1024,1024,,,,,
253,26.6,0m 26.6s,41.58304809,-109.2952478,P-GPS,1.6,0.5,2.6,0.8,0.0,0.0,0.0,0.0,42.6,13.0,41.58314402,-109.2951586,18,5,98,12.186,0.034,4.081,4.047,4.058,0,0,0,-1.2,2.4,-53.1,306.9,1024,1024,364,1024,1024,,,,,
254,26.7,0m 26.7s,41.58304812,-109.29524783,P-GPS,1.6,0.5,2.6,0.8,0.0,0.0,0.0,0.0,42.6,13.0,41.58314402,-109.2951586,18,5,98,12.186,0.034,4.081,4.047,4.058,0,0,0,-1.5,2.3,-53,307,1024,1024,364,1024,1024,,,,,
255,26.8,0m 26.8s,41.58304811,-109.29524786,P-GPS,1.6,0.5,2.6,0.8,0.0,0.0,0.0,0.0,42.6,13.0,41.58314402,-109.2951586,18,5,98,12.181,0.034,4.079,4.045,4.057,0,0,0,-1.4,2.5,-53.1,306.9,1024,1024,364,1024,1024,,,,,
256,26.9,0m 26.9s,41.58304809,-109.29524788,P-GPS,1.6,0.5,2.6,0.8,0.0,0.0,0.0,0.0,42.6,13.0,41.58314402,-109.2951586,18,5,98,12.181,0.034,4.079,4.045,4.057,0,0,0,-1.5,2.4,-53.1,306.9,1024,1024,364,1024,1024,,,,,
257,27,0m 27s,41.58304807,-109.29524791,P-GPS,1.6,0.5,2.6,0.8,0.0,0.0,0.0,0.0,42.6,13.0,41.58314402,-109.2951586,18,5,98,12.181,0.034,4.079,4.045,4.057,0,0,0,-1.5,2.4,-53.1,306.9,1024,1024,364,1024,1024,,,,,
258,27.1,0m 27.1s,41.58304805,-109.29524796,P-GPS,1.6,0.5,2.6,0.8,0.0,0.0,0.0,0.0,42.7,13.0,41.58314402,-109.2951586,18,5,98,12.181,0.034,4.079,4.045,4.057,0,0,0,-1.4,2.6,-53,307,1024,1024,364,1024,1024,,,,,
259,27.2,0m 27.2s,41.58304803,-109.29524802,P-GPS,1.6,0.5,2.6,0.8,0.0,0.0,0.0,0.0,42.7,13.0,41.58314402,-109.2951586,18,5,98,12.181,0.034,4.079,4.045,4.057,0,0,0,-1.4,2.6,-53.1,306.9,1024,1024,364,1024,1024,,,,,
260,27.3,0m 27.3s,41.58304802,-109.29524808,P-GPS,1.6,0.5,2.6,0.8,0.0,0.0,0.0,0.0,42.7,13.0,41.58314402,-109.2951586,18,5,98,12.181,0.034,4.079,4.045,4.057,0,0,0,-1.1,2.7,-53.1,306.9,1024,1024,364,1024,1024,,,,,
261,27.4,0m 27.4s,41.58304802,-109.29524814,P-GPS,1.6,0.5,2.3,0.7,0.0,0.0,0.0,0.0,42.7,13.0,41.58314402,-109.2951586,18,5,98,12.181,0.034,4.079,4.045,4.057,0,0,0,-1,3,-53.1,306.9,1024,1024,364,1024,1024,,,,,
262,27.5,0m 27.5s,41.58304802,-109.29524819,P-GPS,1.6,0.5,2.3,0.7,0.0,0.0,0.0,0.0,42.7,13.0,41.58314402,-109.2951586,18,5,98,12.181,0.034,4.079,4.045,4.057,0,0,0,-1.1,2.8,-53.1,306.9,1024,1024,364,1024,1024,,,,,
263,27.6,0m 27.6s,41.58304801,-109.29524825,P-GPS,1.6,0.5,2.3,0.7,0.0,0.0,0.0,0.0,42.7,13.0,41.58314402,-109.2951586,18,5,98,12.181,0.034,4.079,4.045,4.057,0,0,0,-1.2,2.5,-53.1,306.9,1024,1024,364,1024,1024,,,,,
264,27.7,0m 27.7s,41.58304799,-109.29524832,P-GPS,1.6,0.5,2.3,0.7,0.0,0.0,0.0,0.0,42.7,13.0,41.58314402,-109.2951586,18,5,98,12.181,0.034,4.079,4.045,4.057,0,0,0,-1.1,2.4,-53.1,306.9,1024,1024,364,1024,1024,,,,,
265,27.8,0m 27.8s,41.58304797,-109.29524837,P-GPS,1.6,0.5,2.3,0.7,0.0,0.0,0.0,0.0,42.7,13.0,41.58314402,-109.2951586,18,5,98,12.181,0.034,4.079,4.045,4.057,0,0,0,-1,2.4,-53.1,306.9,1024,1024,364,1024,1024,,,,,
266,27.9,0m 27.9s,41.58304795,-109.29524839,P-GPS,1.6,0.5,2.3,0.7,0.0,0.0,0.0,0.0,42.8,13.0,41.58314402,-109.2951586,18,5,98,12.181,0.034,4.079,4.045,4.057,0,0,0,-1.1,2.5,-53.1,306.9,1024,1024,364,1024,1024,,,,,
267,28,0m 28s,41.58304795,-109.29524842,P-GPS,1.6,0.5,2.3,0.7,0.0,0.0,0.0,0.0,42.8,13.0,41.58314402,-109.2951586,18,5,98,12.181,0.034,4.079,4.045,4.057,0,0,0,-1.3,2.8,-53.1,306.9,1024,1024,364,1024,1024,,,,,
268,28.1,0m 28.1s,41.58304796,-109.29524845,P-GPS,1.6,0.5,2.3,0.7,0.0,0.0,0.0,0.0,42.8,13.0,41.58314402,-109.2951586,18,5,98,12.176,0.035,4.078,4.043,4.055,0,0,0,-1.4,2.7,-53.1,306.9,1024,1024,364,1024,1024,,,,,
269,28.2,0m 28.2s,41.58304799,-109.29524849,P-GPS,1.6,0.5,2.3,0.7,0.0,0.0,0.0,0.0,42.8,13.0,41.58314402,-109.2951586,18,5,98,12.176,0.035,4.078,4.043,4.055,0,0,0,-1.4,2.4,-53.2,306.8,1024,1024,1024,1024,1024,,,,,
270,28.3,0m 28.3s,41.58304801,-109.29524853,P-GPS,1.6,0.5,2.3,0.7,0.0,0.0,0.0,0.0,42.8,13.0,41.58314402,-109.2951586,18,5,98,12.176,0.035,4.078,4.043,4.055,0,0,0,-1.4,2.5,-53.2,306.8,1024,1024,1024,1024,1024,,,,,
271,28.4,0m 28.4s,41.58304803,-109.29524857,P-GPS,1.6,0.5,2.3,0.7,0.0,0.0,0.0,0.0,42.8,13.0,41.58314402,-109.2951586,18,5,98,12.176,0.035,4.078,4.043,4.055,0,0,0,-1.2,2.6,-53.1,306.9,1024,1024,1024,1024,1024,,,,,
272,28.5,0m 28.5s,41.58304805,-109.29524859,P-GPS,1.6,0.5,2.3,0.7,0.0,0.0,0.0,0.0,42.8,13.0,41.58314402,-109.2951586,18,5,98,12.176,0.035,4.078,4.043,4.055,0,0,0,-1.1,2.7,-53.1,306.9,1024,1024,1024,1024,1024,,,,,
273,28.6,0m 28.6s,41.58304807,-109.29524863,P-GPS,1.6,0.5,2.3,0.7,0.0,0.0,0.0,0.0,42.8,13.0,41.58314402,-109.2951586,18,5,98,12.176,0.035,4.078,4.043,4.055,0,0,0,-1.2,2.7,-53.2,306.8,1024,1024,1024,1024,1024,,,,,
274,28.7,0m 28.7s,41.58304809,-109.29524867,P-GPS,1.6,0.5,2.3,0.7,0.0,0.0,0.0,0.0,42.8,13.0,41.58314402,-109.2951586,18,5,98,12.176,0.035,4.078,4.043,4.055,0,0,0,-1,2.5,-53.2,306.8,1024,1024,1024,1024,1024,,,,,
275,28.8,0m 28.8s,41.5830481,-109.29524874,P-GPS,1.6,0.5,2.3,0.7,0.0,0.0,0.0,0.0,42.8,13.0,41.58314402,-109.2951586,18,5,98,12.176,0.035,4.078,4.043,4.055,0,0,0,-0.7,2.6,-53.2,306.8,1024,1024,1024,1024,1024,,,,,
276,28.9,0m 28.9s,41.58304811,-109.29524881,P-GPS,1.6,0.5,2.3,0.7,0.0,0.0,0.0,0.0,42.8,13.0,41.58314402,-109.2951586,18,5,98,12.176,0.035,4.078,4.043,4.055,0,0,0,-0.7,2.5,-53.3,306.7,1024,1024,1024,1024,1024,,,,,
277,29,0m 29s,41.58304812,-109.2952489,P-GPS,1.6,0.5,2.3,0.7,0.0,0.0,0.0,0.0,42.8,13.0,41.58314402,-109.2951586,18,5,98,12.176,0.035,4.078,4.043,4.055,0,0,0,-0.7,2.4,-53.2,306.8,1024,1024,1024,1024,1024,,,,,
278,29.1,0m 29.1s,41.58304812,-109.29524896,P-GPS,1.6,0.5,2.3,0.7,0.0,0.0,0.0,0.0,42.8,13.0,41.58314402,-109.2951586,18,5,98,12.176,0.035,4.078,4.043,4.055,0,0,0,-0.7,2.4,-53.2,306.8,1024,1024,1024,1024,1024,,,,,
