loopIteration, time (us), axisP[0], axisP[1], axisP[2], axisI[0], axisI[1], axisI[2], axisD[0], axisD[1], rcCommand[0], rcCommand[1], rcCommand[2], rcCommand[3], vbatLatest (V), BaroAlt (cm), gyroADC[0], gyroADC[1], gyroADC[2], accSmooth[0], accSmooth[1], accSmooth[2], debug[0], debug[1], debug[2], debug[3], motor[0], motor[1], motor[2], motor[3], flightModeFlags (flags), stateFlags (flags), failsafePhase (flags), rxSignalReceived, rxFlightChannelsValid
  0, 8184933,   0,   0,   0,   0,   0,   0,   0,   0,   0,   0,   0, 1035, 0.000, -1,   0,  -2,   1, -11,   1, 2033,   0,   0,   0,   0, 1000, 1000, 1000, 1000, 0, SMALL_ANGLE, IDLE, 1, 1
  1, 8185982,   0,   0,   0,   0,   0,   0,   0,   0,   0,   0,   0, 1035, 0.000, 0,  -1,  -2,   1, -10,   1, 2033,   0,   0,   0,   0, 1000, 1000, 1000, 1000, 0, SMALL_ANGLE, IDLE, 1, 1
  2, 8186983,   0,   0,   0,   0,   0,   0,   0,   0,   0,   0,   0, 1035, 0.000, 0,  -2,  -3,   1, -10,   1, 2033,   0,   0,   0,   0, 1000, 1000, 1000, 1000, 0, SMALL_ANGLE, IDLE, 1, 1
  3, 8187985,   0,   0,   0,   0,   0,   0,   0,   0,   0,   0,   0, 1035, 0.000, 0,  -2,  -3,   1, -10,   1, 2033,   0,   0,   0,   0, 1000, 1000, 1000, 1000, 0, SMALL_ANGLE, IDLE, 1, 1
  4, 8188990,   0,   0,   0,   0,   0,   0,   0,   0,   0,   0,   0, 1035, 0.000, 0,  -3,  -3,   0, -10,   1, 2033,   0,   0,   0,   0, 1000, 1000, 1000, 1000, 0, SMALL_ANGLE, IDLE, 1, 1
  5, 8190014,   0,   0,   0,   0,   0,   0,   0,   0,   0,   0,   0, 1035, 0.000, 0,  -3,  -3,   0, -10,   1, 2033,   0,   0,   0,   0, 1000, 1000, 1000, 1000, 0, SMALL_ANGLE, IDLE, 1, 1
  6, 8191014,   0,   0,   0,   0,   0,   0,   0,   0,   0,   0,   0, 1035, 0.000, 0,  -3,  -2,  -1, -10,   1, 2033,   0,   0,   0,   0, 1000, 1000, 1000, 1000, 0, SMALL_ANGLE, IDLE, 1, 1
  7, 8192023,   0,   0,   0,   0,   0,   0,   0,   0,   0,   0,   0, 1035, 0.000, 0,  -3,  -2,  -1, -10,   1, 2033,   0,   0,   0,   0, 1000, 1000, 1000, 1000, 0, SMALL_ANGLE, IDLE, 1, 1
  8, 8193024,   0,   0,   0,   0,   0,   0,   0,   0,   0,   0,   0, 1035, 0.000, 0,  -2,  -2,  -1, -10,   1, 2033,   0,   0,   0,   0, 1000, 1000, 1000, 1000, 0, SMALL_ANGLE, IDLE, 1, 1
  9, 8194026,   0,   0,   0,   0,   0,   0,   0,   0,   0,   0,   0, 1035, 0.000, 0,  -2,  -2,  -1, -10,   1, 2033,   0,   0,   0,   0, 1000, 1000, 1000, 1000, 0, SMALL_ANGLE, IDLE, 1, 1
 10, 8195026,   0,   0,   0,   0,   0,   0,   0,   0,   0,   0,   0, 1035, 0.000, 0,  -1,  -1,   0, -10,   1, 2034,   0,   0,   0,   0, 1000, 1000, 1000, 1000, 0, SMALL_ANGLE, IDLE, 1, 1
 11, 8196028,   0,   0,   0,   0,   0,   0,   0,   0,   0,   0,   0, 1035, 0.000, 0,  -1,   0,   1, -10,   1, 2034,   0,   0,   0,   0, 1000, 1000, 1000, 1000, 0, SMALL_ANGLE, IDLE, 1, 1
 12, 8197030,   0,   0,   0,   0,   0,   0,   0,   0,   0,   0,   0, 1035, 0.000, 0,   0,   0,   2, -10,   1, 2034,   0,   0,   0,   0, 1000, 1000, 1000, 1000, 0, SMALL_ANGLE, IDLE, 1, 1
 13, 8198037,   0,   0,   0,   0,   0,   0,   0,   0,   0,   0,   0, 1035, 0.000, 0,   0,   0,   2, -10,   1, 2034,   0,   0,   0,   0, 1000, 1000, 1000, 1000, 0, SMALL_ANGLE, IDLE, 1, 1
 14, 8199037,   0,   0,   0,   0,   0,   0,   0,   0,   0,   0,   0, 1035, 0.000, 0,   1,   1,   2, -10,   1, 2034,   0,   0,   0,   0, 1000, 1000, 1000, 1000, 0, SMALL_ANGLE, IDLE, 1, 1
 15, 8200039,   0,   0,   0,   0,   0,   0,   0,   0,   0,   0,   0, 1035, 0.000, 0,   1,   1,   2, -10,   1, 2034,   0,   0,   0,   0, 1000, 1000, 1000, 1000, 0, SMALL_ANGLE, IDLE, 1, 1
 16, 8201041,   0,   0,   0,   0,   0,   0,   0,   0,   0,   0,   0, 1035, 0.000, 0,   1,   1,   2, -10,   1, 2034,   0,   0,   0,   0, 1000, 1000, 1000, 1000, 0, SMALL_ANGLE, IDLE, 1, 1
 17, 8202043,   0,   0,   0,   0,   0,   0,   0,   0,   0,   0,   0, 1035, 0.000, 0,   1,   1,   2, -10,   1, 2034,   0,   0,   0,   0, 1000, 1000, 1000, 1000, 0, SMALL_ANGLE, IDLE, 1, 1
 18, 8203048,   0,   0,   0,   0,   0,   0,   0,   0,   0,   0,   0, 1035, 0.000, 0,   1,   1,   2, -10,   1, 2034,   0,   0,   0,   0, 1000, 1000, 1000, 1000, 0, SMALL_ANGLE, IDLE, 1, 1
 19, 8204059,   0,   0,   0,   0,   0,   0,   0,   0,   0,   0,   0, 1035, 0.000, 0,   0,   1,   2, -10,   1, 2034,   0,   0,   0,   0, 1000, 1000, 1000, 1000, 0, SMALL_ANGLE, IDLE, 1, 1
 20, 8205059,   0,   0,   0,   0,   0,   0,   0,   0,   0,   0,   0, 1035, 0.000, 0,   0,   1,   2, -10,   1, 2034,   0,   0,   0,   0, 1000, 1000, 1000, 1000, 0, SMALL_ANGLE, IDLE, 1, 1
 21, 8206062,   0,   0,   0,   0,   0,   0,   0,   0,   0,   0,   0, 1035, 0.000, 0,  -1,   0,   2, -10,   1, 2034,   0,   0,   0,   0, 1000, 1000, 1000, 1000, 0, SMALL_ANGLE, IDLE, 1, 1
 22, 8207066,   0,   0,   0,   0,   0,   0,   0,   0,   0,   0,   0, 1035, 0.000, 0,   0,  -1,   2, -10,   1, 2034,   0,   0,   0,   0, 1000, 1000, 1000, 1000, 0, SMALL_ANGLE, IDLE, 1, 1
 23, 8208069,   0,   0,   0,   0,   0,   0,   0,   0,   0,   0,   0, 1035, 0.000, 0,   0,  -2,   2, -10,   1, 2034,   0,   0,   0,   0, 1000, 1000, 1000, 1000, 0, SMALL_ANGLE, IDLE, 1, 1
 24, 8209070,   0,   0,   0,   0,   0,   0,   0,   0,   0,   0,   0, 1035, 0.000, 0,   0,  -3,   2, -10,   1, 2034,   0,   0,   0,   0, 1000, 1000, 1000, 1000, 0, SMALL_ANGLE, IDLE, 1, 1
 25, 8210078,   0,   0,   0,   0,   0,   0,   0,   0,   0,   0,   0, 1035, 0.000, 0,   0,  -3,   2, -10,   1, 2034,   0,   0,   0,   0, 1000, 1000, 1000, 1000, 0, SMALL_ANGLE, IDLE, 1, 1
 26, 8211081,   0,   0,   0,   0,   0,   0,   0,   0,   0,   0,   0, 1035, 0.000, 0,   0,  -3,   2, -10,   1, 2034,   0,   0,   0,   0, 1000, 1000, 1000, 1000, 0, SMALL_ANGLE, IDLE, 1, 1
 27, 8212082,   0,   0,   0,   0,   0,   0,   0,   0,   0,   0,   0, 1035, 0.000, 0,   1,  -3,   1, -10,   1, 2034,   0,   0,   0,   0, 1000, 1000, 1000, 1000, 0, SMALL_ANGLE, IDLE, 1, 1
 28, 8213089,   0,   0,   0,   0,   0,   0,   0,   0,   0,   0,   0, 1035, 0.000, 0,   1,  -3,   1, -10,   0, 2034,   0,   0,   0,   0, 1000, 1000, 1000, 1000, 0, SMALL_ANGLE, IDLE, 1, 1
 29, 8214097,   0,   0,   0,   0,   0,   0,   0,   0,   0,   0,   0, 1035, 0.000, 0,   1,  -3,   0, -10,   0, 2034,   0,   0,   0,   0, 1000, 1000, 1000, 1000, 0, SMALL_ANGLE, IDLE, 1, 1
 30, 8215107,   0,   0,   0,   0,   0,   0,   0,   0,   0,   0,   0, 1035, 0.000, 0,   1,  -3,   0, -10,   0, 2034,   0,   0,   0,   0, 1000, 1000, 1000, 1000, 0, SMALL_ANGLE, IDLE, 1, 1
 31, 8216108,   0,   0,   0,   0,   0,   0,   0,   0,   0,   0,   0, 1035, 0.000, 0,   0,  -3,   1,  -9,   1, 2034,   0,   0,   0,   0, 1000, 1000, 1000, 1000, 0, SMALL_ANGLE, IDLE, 1, 1
 32, 8217115,   0,   0,   0,   0,   0,   0,   0,   0,   0,   0,   0, 1035, 0.000, 0,   0,  -3,   1,  -9,   1, 2034,   0,   0,   0,   0, 1000, 1000, 1000, 1000, 0, SMALL_ANGLE, IDLE, 1, 1
 33, 8218117,   0,   0,   0,   0,   0,   0,   0,   0,   0,   0,   0, 1035, 0.000, 0,   0,  -3,   1,  -9,   1, 2034,   0,   0,   0,   0, 1000, 1000, 1000, 1000, 0, SMALL_ANGLE, IDLE, 1, 1
 34, 8219124,   0,   0,   0,   0,   0,   0,   0,   0,   0,   0,   0, 1035, 0.000, 0,   0,  -3,   1,  -9,   1, 2033,   0,   0,   0,   0, 1000, 1000, 1000, 1000, 0, SMALL_ANGLE, IDLE, 1, 1
 35, 8220130,   0,   0,   0,   0,   0,   0,   0,   0,   0,   0,   0, 1035, 0.000, 0,   0,  -3,   1,  -9,   1, 2033,   0,   0,   0,   0, 1000, 1000, 1000, 1000, 0, SMALL_ANGLE, IDLE, 1, 1
 36, 8221136,   0,   0,   0,   0,   0,   0,   0,   0,   0,   0,   0, 1035, 0.000, 0,   0,  -2,   1,  -9,   1, 2033,   0,   0,   0,   0, 1000, 1000, 1000, 1000, 0, SMALL_ANGLE, IDLE, 1, 1
 37, 8222143,   0,   0,   0,   0,   0,   0,   0,   0,   0,   0,   0, 1035, 0.000, 0,   0,  -1,   1,  -9,   1, 2033,   0,   0,   0,   0, 1000, 1000, 1000, 1000, 0, SMALL_ANGLE, IDLE, 1, 1
 38, 8223143,   0,   0,   0,   0,   0,   0,   0,   0,   0,   0,   0, 1035, 0.000, 0,   0,   0,   1,  -9,   1, 2033,   0,   0,   0,   0, 1000, 1000, 1000, 1000, 0, SMALL_ANGLE, IDLE, 1, 1
 39, 8224145,   0,   0,   0,   0,   0,   0,   0,   0,   0,   0,   0, 1035, 0.000, 0,   0,   0,   0,  -9,   1, 2033,   0,   0,   0,   0, 1000, 1000, 1000, 1000, 0, SMALL_ANGLE, IDLE, 1, 1
 40, 8225148,   0,   0,   0,   0,   0,   0,   0,   0,   0,   0,   0, 1035, 0.000, 0,   0,  -1,   0, -10,   1, 2033,   0,   0,   0,   0, 1000, 1000, 1000, 1000, 0, SMALL_ANGLE, IDLE, 1, 1
 41, 8226157,   0,   0,   0,   0,   0,   0,   0,   0,   0,   0,   0, 1035, 0.000, 0,   0,  -1,   0, -10,   1, 2033,   0,   0,   0,   0, 1000, 1000, 1000, 1000, 0, SMALL_ANGLE, IDLE, 1, 1
 42, 8227160,   0,   0,   0,   0,   0,   0,   0,   0,   0,   0,   0, 1035, 0.000, 0,   0,  -1,   0, -10,   1, 2033,   0,   0,   0,   0, 1000, 1000, 1000, 1000, 0, SMALL_ANGLE, IDLE, 1, 1
 43, 8228198,   0,   0,   0,   0,   0,   0,   0,   0,   0,   0,   0, 1035, 0.000, 0,   0,  -1,   0, -10,   0, 2033,   0,   0,   0,   0, 1000, 1000, 1000, 1000, 0, SMALL_ANGLE, IDLE, 1, 1
 44, 8229205,   0,   0,   0,   0,   0,   0,   0,   0,   0,   0,   0, 1035, 0.000, 0,   0,  -1,   1, -10,   0, 2033,   0,   0,   0,   0, 1000, 1000, 1000, 1000, 0, SMALL_ANGLE, IDLE, 1, 1
 45, 8230214,   0,   0,   0,   0,   0,   0,   0,   0,   0,   0,   0, 1035, 0.000, 0,   0,  -2,   1, -10,   0, 2033,   0,   0,   0,   0, 1000, 1000, 1000, 1000, 0, SMALL_ANGLE, IDLE, 1, 1
 46, 8231222,   0,   0,   0,   0,   0,   0,   0,   0,   0,   0,   0, 1035, 0.000, 0,  -1,  -2,   1, -10,   0, 2032,   0,   0,   0,   0, 1000, 1000, 1000, 1000, 0, SMALL_ANGLE, IDLE, 1, 1
 47, 8232230,   0,   0,   0,   0,   0,   0,   0,   0,   0,   0,   0, 1035, 0.000, 0,  -1,  -2,   1, -10,   0, 2032,   0,   0,   0,   0, 1000, 1000, 1000, 1000, 0, SMALL_ANGLE, IDLE, 1, 1
 48, 8233234,   0,   0,   0,   0,   0,   0,   0,   0,   0,   0,   0, 1035, 0.000, 0,  -1,  -2,   1, -10,   0, 2032,   0,   0,   0,   0, 1000, 1000, 1000, 1000, 0, SMALL_ANGLE, IDLE, 1, 1
 49, 8234241,   0,   0,   0,   0,   0,   0,   0,   0,   0,   0,   0, 1035, 0.000, 0,  -1,  -2,   2, -10,   0, 2032,   0,   0,   0,   0, 1000, 1000, 1000, 1000, 0, SMALL_ANGLE, IDLE, 1, 1
 50, 8235249,   0,   0,   0,   0,   0,   0,   0,   0,   0,   0,   0, 1035, 0.000, 0,  -1,  -2,   2, -10,   0, 2032,   0,   0,   0,   0, 1000, 1000, 1000, 1000, 0, SMALL_ANGLE, IDLE, 1, 1
 51, 8236250,   0,   0,   0,   0,   0,   0,   0,   0,   0,   0,   0, 1035, 0.000, 0,   0,  -2,   2, -10,   0, 2032,   0,   0,   0,   0, 1000, 1000, 1000, 1000, 0, SMALL_ANGLE, IDLE, 1, 1
 52, 8237254,   0,   0,   0,   0,   0,   0,   0,   0,   0,   0,   0, 1035, 0.000, 0,   0,  -2,   3, -10,   0, 2031,   0,   0,   0,   0, 1000, 1000, 1000, 1000, 0, SMALL_ANGLE, IDLE, 1, 1
 53, 8238255,   0,   0,   0,   0,   0,   0,   0,   0,   0,   0,   0, 1035, 0.000, 0,   1,  -2,   2, -10,   0, 2031,   0,   0,   0,   0, 1000, 1000, 1000, 1000, 0, SMALL_ANGLE, IDLE, 1, 1
 54, 8239256,   0,   0,   0,   0,   0,   0,   0,   0,   0,   0,   0, 1035, 0.000, 0,   1,  -2,   2, -10,   0, 2031,   0,   0,   0,   0, 1000, 1000, 1000, 1000, 0, SMALL_ANGLE, IDLE, 1, 1
 55, 8240256,   0,   0,   0,   0,   0,   0,   0,   0,   0,   0,   0, 1035, 0.000, 0,   1,  -2,   2, -10,   0, 2031,   0,   0,   0,   0, 1000, 1000, 1000, 1000, 0, SMALL_ANGLE, IDLE, 1, 1
 56, 8241257,   0,   0,   0,   0,   0,   0,   0,   0,   0,   0,   0, 1035, 0.000, 0,   1,  -3,   1, -10,   0, 2031,   0,   0,   0,   0, 1000, 1000, 1000, 1000, 0, SMALL_ANGLE, IDLE, 1, 1
 57, 8242258,   0,   0,   0,   0,   0,   0,   0,   0,   0,   0,   0, 1035, 0.000, 0,   1,  -3,   0, -10,   0, 2031,   0,   0,   0,   0, 1000, 1000, 1000, 1000, 0, SMALL_ANGLE, IDLE, 1, 1
 58, 8243260,   0,   0,   0,   0,   0,   0,   0,   0,   0,   0,   0, 1035, 0.000, 0,   1,  -3,   0, -10,   0, 2031,   0,   0,   0,   0, 1000, 1000, 1000, 1000, 0, SMALL_ANGLE, IDLE, 1, 1
 59, 8244269,   0,   0,   0,   0,   0,   0,   0,   0,   0,   0,   0, 1035, 0.000, 0,   1,  -2,  -1, -10,   0, 2031,   0,   0,   0,   0, 1000, 1000, 1000, 1000, 0, SMALL_ANGLE, IDLE, 1, 1
 60, 8245271,   0,   0,   0,   0,   0,   0,   0,   0,   0,   0,   0, 1035, 0.000, 0,   1,  -2,   0, -10,   0, 2031,   0,   0,   0,   0, 1000, 1000, 1000, 1000, 0, SMALL_ANGLE, IDLE, 1, 1
 61, 8246277,   0,   0,   0,   0,   0,   0,   0,   0,   0,   0,   0, 1035, 0.017, 0,   1,  -3,   0, -11,   0, 2030,   0,   0,   0,   0, 1000, 1000, 1000, 1000, 0, SMALL_ANGLE, IDLE, 1, 1
 62, 8247280,   0,   0,   0,   0,   0,   0,   0,   0,   0,   0,   0, 1035, 0.017, 0,   0,  -3,   0, -11,   0, 2030,   0,   0,   0,   0, 1000, 1000, 1000, 1000, 0, SMALL_ANGLE, IDLE, 1, 1
 63, 8248285,   0,   0,   0,   0,   0,   0,   0,   0,   0,   0,   0, 1035, 0.017, 0,   0,  -2,   0, -11,   0, 2030,   0,   0,   0,   0, 1000, 1000, 1000, 1000, 0, SMALL_ANGLE, IDLE, 1, 1
 64, 8249292,   0,   0,   0,   0,   0,   0,   0,   0,   0,   0,   0, 1035, 0.017, 0,  -1,  -2,  -1, -11,   0, 2030,   0,   0,   0,   0, 1000, 1000, 1000, 1000, 0, SMALL_ANGLE, IDLE, 1, 1
 65, 8250295,   0,   0,   0,   0,   0,   0,   0,   0,   0,   0,   0, 1035, 0.017, 0,  -1,  -2,  -1, -11,   0, 2030,   0,   0,   0,   0, 1000, 1000, 1000, 1000, 0, SMALL_ANGLE, IDLE, 1, 1
 66, 8251336,   0,   0,   0,   0,   0,   0,   0,   0,   0,   0,   0, 1035, 0.017, 0,  -2,  -2,  -1, -11,   0, 2030,   0,   0,   0,   0, 1000, 1000, 1000, 1000, 0, SMALL_ANGLE, IDLE, 1, 1
 67, 8252338,   0,   0,   0,   0,   0,   0,   0,   0,   0,   0,   0, 1035, 0.017, 0,  -1,  -2,   0, -11,   0, 2030,   0,   0,   0,   0, 1000, 1000, 1000, 1000, 0, SMALL_ANGLE, IDLE, 1, 1
 68, 8253341,   0,   0,   0,   0,   0,   0,   0,   0,   0,   0,   0, 1035, 0.017, 0,  -1,  -2,   1, -11,   0, 2030,   0,   0,   0,   0, 1000, 1000, 1000, 1000, 0, SMALL_ANGLE, IDLE, 1, 1
 69, 8254341,   0,   0,   0,   0,   0,   0,   0,   0,   0,   0,   0, 1035, 0.017, 0,   0,  -2,   1, -11,   0, 2030,   0,   0,   0,   0, 1000, 1000, 1000, 1000, 0, SMALL_ANGLE, IDLE, 1, 1
 70, 8255348,   0,   0,   0,   0,   0,   0,   0,   0,   0,   0,   0, 1035, 0.017, 0,   0,  -2,   2, -11,   0, 2030,   0,   0,   0,   0, 1000, 1000, 1000, 1000, 0, SMALL_ANGLE, IDLE, 1, 1
 71, 8256353,   0,   0,   0,   0,   0,   0,   0,   0,   0,   0,   0, 1035, 0.017, 0,   0,  -2,   2, -11,   0, 2030,   0,   0,   0,   0, 1000, 1000, 1000, 1000, 0, SMALL_ANGLE, IDLE, 1, 1
 72, 8257358,   0,   0,   0,   0,   0,   0,   0,   0,   0,   0,   0, 1035, 0.017, 0,   0,  -2,   2, -11,   0, 2030,   0,   0,   0,   0, 1000, 1000, 1000, 1000, 0, SMALL_ANGLE, IDLE, 1, 1
 73, 8258360,   0,   0,   0,   0,   0,   0,   0,   0,   0,   0,   0, 1035, 0.017, 0,  -1,  -2,   2, -11,   0, 2031,   0,   0,   0,   0, 1000, 1000, 1000, 1000, 0, SMALL_ANGLE, IDLE, 1, 1
 74, 8259365,   0,   0,   0,   0,   0,   0,   0,   0,   0,   0,   0, 1035, 0.017, 0,  -1,  -2,   2, -11,   0, 2031,   0,   0,   0,   0, 1000, 1000, 1000, 1000, 0, SMALL_ANGLE, IDLE, 1, 1
 75, 8260373,   0,   0,   0,   0,   0,   0,   0,   0,   0,   0,   0, 1035, 0.017, 0,  -1,  -3,   1, -11,   0, 2031,   0,   0,   0,   0, 1000, 1000, 1000, 1000, 0, SMALL_ANGLE, IDLE, 1, 1
 76, 8261377,   0,   0,   0,   0,   0,   0,   0,   0,   0,   0,   0, 1035, 0.017, 0,  -1,  -2,   1, -11,   1, 2031,   0,   0,   0,   0, 1000, 1000, 1000, 1000, 0, SMALL_ANGLE, IDLE, 1, 1
 77, 8262381,   0,   0,   0,   0,   0,   0,   0,   0,   0,   0,   0, 1035, 0.017, 0,  -1,  -2,   0, -11,   1, 2031,   0,   0,   0,   0, 1000, 1000, 1000, 1000, 0, SMALL_ANGLE, IDLE, 1, 1
 78, 8263383,   0,   0,   0,   0,   0,   0,   0,   0,   0,   0,   0, 1035, 0.017, 0,   0,  -2,   0, -11,   1, 2031,   0,   0,   0,   0, 1000, 1000, 1000, 1000, 0, SMALL_ANGLE, IDLE, 1, 1
 79, 8264386,   0,   0,   0,   0,   0,   0,   0,   0,   0,   0,   0, 1035, 0.017, 0,   1,  -2,   1, -11,   1, 2032,   0,   0,   0,   0, 1000, 1000, 1000, 1000, 0, SMALL_ANGLE, IDLE, 1, 1
 80, 8265391,   0,   0,   0,   0,   0,   0,   0,   0,   0,   0,   0, 1035, 0.017, 0,   1,  -1,   1, -11,   1, 2032,   0,   0,   0,   0, 1000, 1000, 1000, 1000, 0, SMALL_ANGLE, IDLE, 1, 1
 81, 8266393,   0,   0,   0,   0,   0,   0,   0,   0,   0,   0,   0, 1035, 0.017, 0,   2,  -1,   2, -11,   1, 2032,   0,   0,   0,   0, 1000, 1000, 1000, 1000, 0, SMALL_ANGLE, IDLE, 1, 1
 82, 8267396,   0,   0,   0,   0,   0,   0,   0,   0,   0,   0,   0, 1035, 0.017, 0,   3,  -1,   2, -11,   1, 2033,   0,   0,   0,   0, 1000, 1000, 1000, 1000, 0, SMALL_ANGLE, IDLE, 1, 1
 83, 8268399,   0,   0,   0,   0,   0,   0,   0,   0,   0,   0,   0, 1035, 0.017, 0,   3,  -1,   2, -11,   1, 2033,   0,   0,   0,   0, 1000, 1000, 1000, 1000, 0, SMALL_ANGLE, IDLE, 1, 1
 84, 8269400,   0,   0,   0,   0,   0,   0,   0,   0,   0,   0,   0, 1035, 0.017, 0,   2,  -1,   1, -11,   1, 2033,   0,   0,   0,   0, 1000, 1000, 1000, 1000, 0, SMALL_ANGLE, IDLE, 1, 1
 85, 8270406,   0,   0,   0,   0,   0,   0,   0,   0,   0,   0,   0, 1035, 0.017, 0,   1,  -1,   1, -11,   1, 2033,   0,   0,   0,   0, 1000, 1000, 1000, 1000, 0, SMALL_ANGLE, IDLE, 1, 1
 86, 8271410,   0,   0,   0,   0,   0,   0,   0,   0,   0,   0,   0, 1035, 0.017, 0,   1,  -1,   1, -11,   1, 2033,   0,   0,   0,   0, 1000, 1000, 1000, 1000, 0, SMALL_ANGLE, IDLE, 1, 1
 87, 8272414,   0,   0,   0,   0,   0,   0,   0,   0,   0,   0,   0, 1035, 0.017, 0,   0,  -2,   0, -11,   1, 2033,   0,   0,   0,   0, 1000, 1000, 1000, 1000, 0, SMALL_ANGLE, IDLE, 1, 1
 88, 8273417,   0,   0,   0,   0,   0,   0,   0,   0,   0,   0,   0, 1035, 0.017, 0,   0,  -1,   0, -11,   1, 2033,   0,   0,   0,   0, 1000, 1000, 1000, 1000, 0, SMALL_ANGLE, IDLE, 1, 1
 89, 8274418,   0,   0,   0,   0,   0,   0,   0,   0,   0,   0,   0, 1035, 0.017, 0,   0,  -1,  -1, -11,   1, 2033,   0,   0,   0,   0, 1000, 1000, 1000, 1000, 0, SMALL_ANGLE, IDLE, 1, 1
 90, 8275421,   0,   0,   0,   0,   0,   0,   0,   0,   0,   0,   0, 1035, 0.017, 0,   0,  -1,  -1, -11,   1, 2033,   0,   0,   0,   0, 1000, 1000, 1000, 1000, 0, SMALL_ANGLE, IDLE, 1, 1
 91, 8276422,   0,   0,   0,   0,   0,   0,   0,   0,   0,   0,   0, 1035, 0.017, 0,   0,   0,  -1, -11,   2, 2033,   0,   0,   0,   0, 1000, 1000, 1000, 1000, 0, SMALL_ANGLE, IDLE, 1, 1
 92, 8277431,   0,   0,   0,   0,   0,   0,   0,   0,   0,   0,   0, 1035, 0.017, 0,   0,   0,  -2, -11,   2, 2033,   0,   0,   0,   0, 1000, 1000, 1000, 1000, 0, SMALL_ANGLE, IDLE, 1, 1
 93, 8278431,   0,   0,   0,   0,   0,   0,   0,   0,   0,   0,   0, 1035, 0.017, 0,   0,   0,  -2, -11,   2, 2033,   0,   0,   0,   0, 1000, 1000, 1000, 1000, 0, SMALL_ANGLE, IDLE, 1, 1
 94, 8279441,   0,   0,   0,   0,   0,   0,   0,   0,   0,   0,   0, 1035, 0.017, 0,   0,   0,  -2, -11,   2, 2033,   0,   0,   0,   0, 1000, 1000, 1000, 1000, 0, SMALL_ANGLE, IDLE, 1, 1
 95, 8280442,   0,   0,   0,   0,   0,   0,   0,   0,   0,   0,   0, 1035, 0.017, 0,  -1,   0,  -2, -11,   2, 2033,   0,   0,   0,   0, 1000, 1000, 1000, 1000, 0, SMALL_ANGLE, IDLE, 1, 1
 96, 8281442,   0,   0,   0,   0,   0,   0,   0,   0,   0,   0,   0, 1035, 0.017, 0,  -1,   0,  -1, -11,   2, 2033,   0,   0,   0,   0, 1000, 1000, 1000, 1000, 0, SMALL_ANGLE, IDLE, 1, 1
 97, 8282449,   0,   0,   0,   0,   0,   0,   0,   0,   0,   0,   0, 1035, 0.017, 0,  -1,   0,  -1, -11,   2, 2033,   0,   0,   0,   0, 1000, 1000, 1000, 1000, 0, SMALL_ANGLE, IDLE, 1, 1
 98, 8283451,   0,   0,   0,   0,   0,   0,   0,   0,   0,   0,   0, 1035, 0.017, 0,  -1,  -1,   0, -11,   2, 2033,   0,   0,   0,   0, 1000, 1000, 1000, 1000, 0, SMALL_ANGLE, IDLE, 1, 1
 99, 8284453,   0,   0,   0,   0,   0,   0,   0,   0,   0,   0,   0, 1035, 0.017, 0,  -1,  -1,   0, -11,   2, 2033,   0,   0,   0,   0, 1000, 1000, 1000, 1000, 0, SMALL_ANGLE, IDLE, 1, 1
100, 8285454,   0,   0,   0,   0,   0,   0,   0,   0,   0,   0,   0, 1035, 0.017, 0,  -1,  -2,   0, -11,   2, 2033,   0,   0,   0,   0, 1000, 1000, 1000, 1000, 0, SMALL_ANGLE, IDLE, 1, 1
101, 8286457,   0,   0,   0,   0,   0,   0,   0,   0,   0,   0,   0, 1035, 0.008, 0,  -1,  -2,  -1, -11,   2, 2033,   0,   0,   0,   0, 1000, 1000, 1000, 1000, 0, SMALL_ANGLE, IDLE, 1, 1
102, 8287460,   0,   0,   0,   0,   0,   0,   0,   0,   0,   0,   0, 1035, 0.008, 0,  -1,  -3,  -1, -11,   2, 2033,   0,   0,   0,   0, 1000, 1000, 1000, 1000, 0, SMALL_ANGLE, IDLE, 1, 1
103, 8288463,   0,   0,   0,   0,   0,   0,   0,   0,   0,   0,   0, 1035, 0.008, 0,   0,  -3,  -1, -11,   2, 2034,   0,   0,   0,   0, 1000, 1000, 1000, 1000, 0, SMALL_ANGLE, IDLE, 1, 1
104, 8289471,   0,   0,   0,   0,   0,   0,   0,   0,   0,   0,   0, 1035, 0.008, 0,   1,  -3,  -1, -11,   2, 2034,   0,   0,   0,   0, 1000, 1000, 1000, 1000, 0, SMALL_ANGLE, IDLE, 1, 1
105, 8290473,   0,   0,   0,   0,   0,   0,   0,   0,   0,   0,   0, 1035, 0.008, 0,   1,  -2,   0, -11,   2, 2034,   0,   0,   0,   0, 1000, 1000, 1000, 1000, 0, SMALL_ANGLE, IDLE, 1, 1
106, 8291478,   0,   0,   0,   0,   0,   0,   0,   0,   0,   0,   0, 1035, 0.008, 0,   1,  -2,   1, -11,   2, 2034,   0,   0,   0,   0, 1000, 1000, 1000, 1000, 0, SMALL_ANGLE, IDLE, 1, 1
107, 8292480,   0,   0,   0,   0,   0,   0,   0,   0,   0,   0,   0, 1035, 0.008, 0,   1,  -1,   1, -11,   2, 2034,   0,   0,   0,   0, 1000, 1000, 1000, 1000, 0, SMALL_ANGLE, IDLE, 1, 1
108, 8293483,   0,   0,   0,   0,   0,   0,   0,   0,   0,   0,   0, 1035, 0.008, 0,   1,  -1,   1, -11,   2, 2034,   0,   0,   0,   0, 1000, 1000, 1000, 1000, 0, SMALL_ANGLE, IDLE, 1, 1
109, 8294484,   0,   0,   0,   0,   0,   0,   0,   0,   0,   0,   0, 1035, 0.008, 0,   1,  -1,   1, -12,   2, 2034,   0,   0,   0,   0, 1000, 1000, 1000, 1000, 0, SMALL_ANGLE, IDLE, 1, 1
110, 8295489,   0,   0,   0,   0,   0,   0,   0,   0,   0,   0,   0, 1035, 0.008, 0,   1,  -1,   1, -12,   2, 2034,   0,   0,   0,   0, 1000, 1000, 1000, 1000, 0, SMALL_ANGLE, IDLE, 1, 1
111, 8296491,   0,   0,   0,   0,   0,   0,   0,   0,   0,   0,   0, 1035, 0.008, 0,   1,  -1,   1, -12,   2, 2034,   0,   0,   0,   0, 1000, 1000, 1000, 1000, 0, SMALL_ANGLE, IDLE, 1, 1
112, 8297493,   0,   0,   0,   0,   0,   0,   0,   0,   0,   0,   0, 1035, 0.008, 0,   1,  -1,   1, -12,   2, 2034,   0,   0,   0,   0, 1000, 1000, 1000, 1000, 0, SMALL_ANGLE, IDLE, 1, 1
113, 8298500,   0,   0,   0,   0,   0,   0,   0,   0,   0,   0,   0, 1035, 0.008, 0,   1,  -1,   1, -12,   2, 2034,   0,   0,   0,   0, 1000, 1000, 1000, 1000, 0, SMALL_ANGLE, IDLE, 1, 1
114, 8299508,   0,   0,   0,   0,   0,   0,   0,   0,   0,   0,   0, 1035, 0.008, 0,   1,  -1,   1, -12,   2, 2034,   0,   0,   0,   0, 1000, 1000, 1000, 1000, 0, SMALL_ANGLE, IDLE, 1, 1
115, 8300516,   0,   0,   0,   0,   0,   0,   0,   0,   0,   0,   0, 1035, 0.008, 0,   1,  -1,   1, -12,   2, 2034,   0,   0,   0,   0, 1000, 1000, 1000, 1000, 0, SMALL_ANGLE, IDLE, 1, 1
116, 8301520,   0,   0,   0,   0,   0,   0,   0,   0,   0,   0,   0, 1035, 0.008, 0,   1,  -2,   1, -12,   2, 2034,   0,   0,   0,   0, 1000, 1000, 1000, 1000, 0, SMALL_ANGLE, IDLE, 1, 1
117, 8302531,   0,   0,   0,   0,   0,   0,   0,   0,   0,   0,   0, 1035, 0.008, 0,   1,  -3,   1, -12,   2, 2034,   0,   0,   0,   0, 1000, 1000, 1000, 1000, 0, SMALL_ANGLE, IDLE, 1, 1
118, 8303534,   0,   0,   0,   0,   0,   0,   0,   0,   0,   0,   0, 1035, 0.008, 0,   1,  -3,   1, -12,   1, 2034,   0,   0,   0,   0, 1000, 1000, 1000, 1000, 0, SMALL_ANGLE, IDLE, 1, 1
119, 8304543,   0,   0,   0,   0,   0,   0,   0,   0,   0,   0,   0, 1035, 0.008, 0,   2,  -3,   1, -12,   1, 2034,   0,   0,   0,   0, 1000, 1000, 1000, 1000, 0, SMALL_ANGLE, IDLE, 1, 1
120, 8305550,   0,   0,   0,   0,   0,   0,   0,   0,   0,   0,   0, 1035, 0.008, 0,   2,  -3,   1, -12,   1, 2034,   0,   0,   0,   0, 1000, 1000, 1000, 1000, 0, SMALL_ANGLE, IDLE, 1, 1
121, 8306554,   0,   0,   0,   0,   0,   0,   0,   0,   0,   0,   0, 1035, 0.008, 0,   1,  -3,   2, -12,   1, 2034,   0,   0,   0,   0, 1000, 1000, 1000, 1000, 0, SMALL_ANGLE, IDLE, 1, 1
122, 8307561,   0,   0,   0,   0,   0,   0,   0,   0,   0,   0,   0, 1035, 0.008, 0,   1,  -2,   3, -12,   1, 2034,   0,   0,   0,   0, 1000, 1000, 1000, 1000, 0, SMALL_ANGLE, IDLE, 1, 1
123, 8308567,   0,   0,   0,   0,   0,   0,   0,   0,   0,   0,   0, 1035, 0.008, 0,   0,  -2,   3, -12,   1, 2034,   0,   0,   0,   0, 1000, 1000, 1000, 1000, 0, SMALL_ANGLE, IDLE, 1, 1
124, 8309574,   0,   0,   0,   0,   0,   0,   0,   0,   0,   0,   0, 1035, 0.008, 0,   0,  -2,   3, -12,   1, 2034,   0,   0,   0,   0, 1000, 1000, 1000, 1000, 0, SMALL_ANGLE, IDLE, 1, 1
125, 8310580,   0,   0,   0,   0,   0,   0,   0,   0,   0,   0,   0, 1035, 0.008, 0,   0,  -2,   2, -12,   1, 2034,   0,   0,   0,   0, 1000, 1000, 1000, 1000, 0, SMALL_ANGLE, IDLE, 1, 1
126, 8311583,   0,   0,   0,   0,   0,   0,   0,   0,   0,   0,   0, 1035, 0.008, 0,   0,  -3,   2, -12,   1, 2034,   0,   0,   0,   0, 1000, 1000, 1000, 1000, 0, SMALL_ANGLE, IDLE, 1, 1
127, 8312584,   0,   0,   0,   0,   0,   0,   0,   0,   0,   0,   0, 1035, 0.008, 0,   0,  -3,   1, -12,   1, 2034,   0,   0,   0,   0, 1000, 1000, 1000, 1000, 0, SMALL_ANGLE, IDLE, 1, 1
128, 8313589,   0,   0,   0,   0,   0,   0,   0,   0,   0,   0,   0, 1035, 0.008, 0,   0,  -3,   1, -12,   1, 2034,   0,   0,   0,   0, 1000, 1000, 1000, 1000, 0, SMALL_ANGLE, IDLE, 1, 1
129, 8314592,   0,   0,   0,   0,   0,   0,   0,   0,   0,   0,   0, 1035, 0.008, 0,   0,  -2,   1, -12,   1, 2034,   0,   0,   0,   0, 1000, 1000, 1000, 1000, 0, SMALL_ANGLE, IDLE, 1, 1
130, 8315597,   0,   0,   0,   0,   0,   0,   0,   0,   0,   0,   0, 1035, 0.008, 0,   0,  -2,   1, -12,   1, 2034,   0,   0,   0,   0, 1000, 1000, 1000, 1000, 0, SMALL_ANGLE, IDLE, 1, 1
131, 8316601,   0,   0,   0,   0,   0,   0,   0,   0,   0,   0,   0, 1035, 0.008, 0,   0,  -2,   1, -12,   1, 2034,   0,   0,   0,   0, 1000, 1000, 1000, 1000, 0, SMALL_ANGLE, IDLE, 1, 1
132, 8317605,   0,   0,   0,   0,   0,   0,   0,   0,   0,   0,   0, 1035, 0.008, 0,   0,  -1,   1, -12,   1, 2034,   0,   0,   0,   0, 1000, 1000, 1000, 1000, 0, SMALL_ANGLE, IDLE, 1, 1
133, 8318607,   0,   0,   0,   0,   0,   0,   0,   0,   0,   0,   0, 1035, 0.008, 0,   0,  -2,   0, -12,   1, 2034,   0,   0,   0,   0, 1000, 1000, 1000, 1000, 0, SMALL_ANGLE, IDLE, 1, 1
134, 8319613,   0,   0,   0,   0,   0,   0,   0,   0,   0,   0,   0, 1035, 0.008, 0,   0,  -2,  -1, -12,   1, 2034,   0,   0,   0,   0, 1000, 1000, 1000, 1000, 0, SMALL_ANGLE, IDLE, 1, 1
135, 8320614,   0,   0,   0,   0,   0,   0,   0,   0,   0,   0,   0, 1035, 0.008, 0,   0,  -3,  -2, -12,   1, 2034,   0,   0,   0,   0, 1000, 1000, 1000, 1000, 0, SMALL_ANGLE, IDLE, 1, 1
136, 8321618,   0,   0,   0,   0,   0,   0,   0,   0,   0,   0,   0, 1035, 0.008, 0,   0,  -3,  -2, -11,   1, 2034,   0,   0,   0,   0, 1000, 1000, 1000, 1000, 0, SMALL_ANGLE, IDLE, 1, 1
137, 8322629,   0,   0,   0,   0,   0,   0,   0,   0,   0,   0,   0, 1035, 0.008, 0,   1,  -2,  -2, -11,   1, 2034,   0,   0,   0,   0, 1000, 1000, 1000, 1000, 0, SMALL_ANGLE, IDLE, 1, 1
138, 8323629,   0,   0,   0,   0,   0,   0,   0,   0,   0,   0,   0, 1035, 0.008, 0,   1,  -2,  -2, -11,   1, 2034,   0,   0,   0,   0, 1000, 1000, 1000, 1000, 0, SMALL_ANGLE, IDLE, 1, 1
139, 8324630,   0,   0,   0,   0,   0,   0,   0,   0,   0,   0,   0, 1035, 0.008, 0,   1,  -1,  -2, -11,   1, 2034,   0,   0,   0,   0, 1000, 1000, 1000, 1000, 0, SMALL_ANGLE, IDLE, 1, 1
140, 8325638,   0,   0,   0,   0,   0,   0,   0,   0,   0,   0,   0, 1035, 0.008, 0,   0,  -1,  -1, -11,   1, 2034,   0,   0,   0,   0, 1000, 1000, 1000, 1000, 0, SMALL_ANGLE, IDLE, 1, 1
141, 8326642,   0,   0,   0,   0,   0,   0,   0,   0,   0,   0,   0, 1035, 0.000, 0,  -1,  -1,  -1, -11,   1, 2034,   0,   0,   0,   0, 1000, 1000, 1000, 1000, 0, SMALL_ANGLE, IDLE, 1, 1
142, 8327643,   0,   0,   0,   0,   0,   0,   0,   0,   0,   0,   0, 1035, 0.000, 0,  -2,  -1,  -1, -11,   2, 2033,   0,   0,   0,   0, 1000, 1000, 1000, 1000, 0, SMALL_ANGLE, IDLE, 1, 1
143, 8328643,   0,   0,   0,   0,   0,   0,   0,   0,   0,   0,   0, 1035, 0.000, 0,  -2,  -1,   0, -11,   2, 2033,   0,   0,   0,   0, 1000, 1000, 1000, 1000, 0, SMALL_ANGLE, IDLE, 1, 1
144, 8329652,   0,   0,   0,   0,   0,   0,   0,   0,   0,   0,   0, 1035, 0.000, 0,  -1,  -1,   0, -11,   2, 2033,   0,   0,   0,   0, 1000, 1000, 1000, 1000, 0, SMALL_ANGLE, IDLE, 1, 1
145, 8330659,   0,   0,   0,   0,   0,   0,   0,   0,   0,   0,   0, 1035, 0.000, 0,  -1,  -1,   0, -11,   2, 2033,   0,   0,   0,   0, 1000, 1000, 1000, 1000, 0, SMALL_ANGLE, IDLE, 1, 1
146, 8331668,   0,   0,   0,   0,   0,   0,   0,   0,   0,   0,   0, 1035, 0.000, 0,   0,  -1,   0, -11,   2, 2033,   0,   0,   0,   0, 1000, 1000, 1000, 1000, 0, SMALL_ANGLE, IDLE, 1, 1
147, 8332670,   0,   0,   0,   0,   0,   0,   0,   0,   0,   0,   0, 1035, 0.000, 0,   0,  -1,   0, -11,   2, 2033,   0,   0,   0,   0, 1000, 1000, 1000, 1000, 0, SMALL_ANGLE, IDLE, 1, 1
148, 8333673,   0,   0,   0,   0,   0,   0,   0,   0,   0,   0,   0, 1035, 0.000, 0,  -1,  -1,   0, -11,   2, 2032,   0,   0,   0,   0, 1000, 1000, 1000, 1000, 0, SMALL_ANGLE, IDLE, 1, 1
149, 8334673,   0,   0,   0,   0,   0,   0,   0,   0,   0,   0,   0, 1035, 0.000, 0,  -1,  -1,   0, -11,   2, 2032,   0,   0,   0,   0, 1000, 1000, 1000, 1000, 0, SMALL_ANGLE, IDLE, 1, 1
150, 8335673,   0,   0,   0,   0,   0,   0,   0,   0,   0,   0,   0, 1035, 0.000, 0,  -1,  -1,   0, -11,   2, 2032,   0,   0,   0,   0, 1000, 1000, 1000, 1000, 0, SMALL_ANGLE, IDLE, 1, 1
151, 8336710,   0,   0,   0,   0,   0,   0,   0,   0,   0,   0,   0, 1035, 0.000, 0,  -1,  -1,  -1, -11,   2, 2032,   0,   0,   0,   0, 1000, 1000, 1000, 1000, 0, SMALL_ANGLE, IDLE, 1, 1
152, 8337718,   0,   0,   0,   0,   0,   0,   0,   0,   0,   0,   0, 1035, 0.000, 0,  -1,  -1,  -1, -11,   2, 2032,   0,   0,   0,   0, 1000, 1000, 1000, 1000, 0, SMALL_ANGLE, IDLE, 1, 1
153, 8338728,   0,   0,   0,   0,   0,   0,   0,   0,   0,   0,   0, 1035, 0.000, 0,   0,  -1,  -1, -11,   2, 2032,   0,   0,   0,   0, 1000, 1000, 1000, 1000, 0, SMALL_ANGLE, IDLE, 1, 1
154, 8339736,   0,   0,   0,   0,   0,   0,   0,   0,   0,   0,   0, 1035, 0.000, 0,   0,  -1,  -2, -11,   3, 2032,   0,   0,   0,   0, 1000, 1000, 1000, 1000, 0, SMALL_ANGLE, IDLE, 1, 1
155, 8340739,   0,   0,   0,   0,   0,   0,   0,   0,   0,   0,   0, 1035, 0.000, 0,   1,  -1,  -2, -11,   3, 2032,   0,   0,   0,   0, 1000, 1000, 1000, 1000, 0, SMALL_ANGLE, IDLE, 1, 1
156, 8341746,   0,   0,   0,   0,   0,   0,   0,   0,   0,   0,   0, 1035, 0.000, 0,   1,  -2,  -1, -11,   3, 2032,   0,   0,   0,   0, 1000, 1000, 1000, 1000, 0, SMALL_ANGLE, IDLE, 1, 1
157, 8342746,   0,   0,   0,   0,   0,   0,   0,   0,   0,   0,   0, 1035, 0.000, 0,   1,  -2,  -1, -11,   3, 2032,   0,   0,   0,   0, 1000, 1000, 1000, 1000, 0, SMALL_ANGLE, IDLE, 1, 1
158, 8343746,   0,   0,   0,   0,   0,   0,   0,   0,   0,   0,   0, 1035, 0.000, 0,   0,  -3,   0, -11,   3, 2032,   0,   0,   0,   0, 1000, 1000, 1000, 1000, 0, SMALL_ANGLE, IDLE, 1, 1
159, 8344750,   0,   0,   0,   0,   0,   0,   0,   0,   0,   0,   0, 1035, 0.000, 0,   0,  -2,   0, -11,   3, 2032,   0,   0,   0,   0, 1000, 1000, 1000, 1000, 0, SMALL_ANGLE, IDLE, 1, 1
160, 8345758,   0,   0,   0,   0,   0,   0,   0,   0,   0,   0,   0, 1035, 0.000, 0,  -1,  -2,   0, -11,   3, 2032,   0,   0,   0,   0, 1000, 1000, 1000, 1000, 0, SMALL_ANGLE, IDLE, 1, 1
161, 8346764,   0,   0,   0,   0,   0,   0,   0,   0,   0,   0,   0, 1035, 0.000, 0,  -2,  -1,   0, -11,   3, 2032,   0,   0,   0,   0, 1000, 1000, 1000, 1000, 0, SMALL_ANGLE, IDLE, 1, 1
162, 8347772,   0,   0,   0,   0,   0,   0,   0,   0,   0,   0,   0, 1035, 0.000, 0,  -1,  -1,   0, -11,   3, 2032,   0,   0,   0,   0, 1000, 1000, 1000, 1000, 0, SMALL_ANGLE, IDLE, 1, 1
163, 8348772,   0,   0,   0,   0,   0,   0,   0,   0,   0,   0,   0, 1035, 0.000, 0,  -1,  -1,  -1, -11,   3, 2033,   0,   0,   0,   0, 1000, 1000, 1000, 1000, 0, SMALL_ANGLE, IDLE, 1, 1
164, 8349781,   0,   0,   0,   0,   0,   0,   0,   0,   0,   0,   0, 1035, 0.000, 0,  -1,  -1,  -1, -11,   3, 2033,   0,   0,   0,   0, 1000, 1000, 1000, 1000, 0, SMALL_ANGLE, IDLE, 1, 1
165, 8350781,   0,   0,   0,   0,   0,   0,   0,   0,   0,   0,   0, 1035, 0.000, 0,  -1,  -1,  -1, -11,   3, 2033,   0,   0,   0,   0, 1000, 1000, 1000, 1000, 0, SMALL_ANGLE, IDLE, 1, 1
166, 8351785,   0,   0,   0,   0,   0,   0,   0,   0,   0,   0,   0, 1035, 0.000, 0,   0,  -1,  -1, -11,   3, 2033,   0,   0,   0,   0, 1000, 1000, 1000, 1000, 0, SMALL_ANGLE, IDLE, 1, 1
167, 8352788,   0,   0,   0,   0,   0,   0,   0,   0,   0,   0,   0, 1035, 0.000, 0,   0,  -1,   0, -11,   3, 2033,   0,   0,   0,   0, 1000, 1000, 1000, 1000, 0, SMALL_ANGLE, IDLE, 1, 1
168, 8353789,   0,   0,   0,   0,   0,   0,   0,   0,   0,   0,   0, 1035, 0.000, 0,   0,   0,   0, -11,   3, 2033,   0,   0,   0,   0, 1000, 1000, 1000, 1000, 0, SMALL_ANGLE, IDLE, 1, 1
169, 8354797,   0,   0,   0,   0,   0,   0,   0,   0,   0,   0,   0, 1035, 0.000, 0,   0,   0,   0, -11,   3, 2034,   0,   0,   0,   0, 1000, 1000, 1000, 1000, 0, SMALL_ANGLE, IDLE, 1, 1
170, 8355797,   0,   0,   0,   0,   0,   0,   0,   0,   0,   0,   0, 1035, 0.000, 0,   0,   0,   0, -11,   3, 2034,   0,   0,   0,   0, 1000, 1000, 1000, 1000, 0, SMALL_ANGLE, IDLE, 1, 1
171, 8356806,   0,   0,   0,   0,   0,   0,   0,   0,   0,   0,   0, 1035, 0.000, 0,   0,   0,   0, -11,   3, 2034,   0,   0,   0,   0, 1000, 1000, 1000, 1000, 0, SMALL_ANGLE, IDLE, 1, 1
172, 8357813,   0,   0,   0,   0,   0,   0,   0,   0,   0,   0,   0, 1035, 0.000, 0,   0,   0,   0, -11,   2, 2034,   0,   0,   0,   0, 1000, 1000, 1000, 1000, 0, SMALL_ANGLE, IDLE, 1, 1
173, 8358824,   0,   0,   0,   0,   0,   0,   0,   0,   0,   0,   0, 1035, 0.000, 0,  -1,   0,  -1, -11,   2, 2034,   0,   0,   0,   0, 1000, 1000, 1000, 1000, 0, SMALL_ANGLE, IDLE, 1, 1
174, 8359832,   0,   0,   0,   0,   0,   0,   0,   0,   0,   0,   0, 1035, 0.000, 0,  -1,   0,  -1, -11,   2, 2034,   0,   0,   0,   0, 1000, 1000, 1000, 1000, 0, SMALL_ANGLE, IDLE, 1, 1
175, 8360836,   0,   0,   0,   0,   0,   0,   0,   0,   0,   0,   0, 1035, 0.000, 0,  -1,  -1,   0, -11,   2, 2035,   0,   0,   0,   0, 1000, 1000, 1000, 1000, 0, SMALL_ANGLE, IDLE, 1, 1
176, 8361843,   0,   0,   0,   0,   0,   0,   0,   0,   0,   0,   0, 1035, 0.000, 0,  -2,  -1,   0, -11,   2, 2035,   0,   0,   0,   0, 1000, 1000, 1000, 1000, 0, SMALL_ANGLE, IDLE, 1, 1
177, 8362844,   0,   0,   0,   0,   0,   0,   0,   0,   0,   0,   0, 1035, 0.000, 0,  -2,  -1,   1, -11,   2, 2035,   0,   0,   0,   0, 1000, 1000, 1000, 1000, 0, SMALL_ANGLE, IDLE, 1, 1
178, 8363848,   0,   0,   0,   0,   0,   0,   0,   0,   0,   0,   0, 1035, 0.000, 0,  -1,  -1,   2, -11,   2, 2035,   0,   0,   0,   0, 1000, 1000, 1000, 1000, 0, SMALL_ANGLE, IDLE, 1, 1
179, 8364853,   0,   0,   0,   0,   0,   0,   0,   0,   0,   0,   0, 1035, 0.000, 0,  -1,  -2,   2, -11,   2, 2035,   0,   0,   0,   0, 1000, 1000, 1000, 1000, 0, SMALL_ANGLE, IDLE, 1, 1
180, 8365862,   0,   0,   0,   0,   0,   0,   0,   0,   0,   0,   0, 1035, 0.000, 0,  -1,  -2,   3, -11,   2, 2035,   0,   0,   0,   0, 1000, 1000, 1000, 1000, 0, SMALL_ANGLE, IDLE, 1, 1
181, 8366871,   0,   0,   0,   0,   0,   0,   0,   0,   0,   0,   0, 1035, 0.017, 0,  -1,  -2,   3, -11,   2, 2036,   0,   0,   0,   0, 1000, 1000, 1000, 1000, 0, SMALL_ANGLE, IDLE, 1, 1
182, 8367878,   0,   0,   0,   0,   0,   0,   0,   0,   0,   0,   0, 1035, 0.017, 0,  -1,  -2,   4, -11,   2, 2036,   0,   0,   0,   0, 1000, 1000, 1000, 1000, 0, SMALL_ANGLE, IDLE, 1, 1
183, 8368883,   0,   0,   0,   0,   0,   0,   0,   0,   0,   0,   0, 1035, 0.017, 0,   0,  -2,   4, -11,   2, 2036,   0,   0,   0,   0, 1000, 1000, 1000, 1000, 0, SMALL_ANGLE, IDLE, 1, 1
184, 8369886,   0,   0,   0,   0,   0,   0,   0,   0,   0,   0,   0, 1035, 0.017, 0,   0,  -1,   4, -11,   2, 2036,   0,   0,   0,   0, 1000, 1000, 1000, 1000, 0, SMALL_ANGLE, IDLE, 1, 1
185, 8370893,   0,   0,   0,   0,   0,   0,   0,   0,   0,   0,   0, 1035, 0.017, 0,   0,  -1,   3, -11,   2, 2036,   0,   0,   0,   0, 1000, 1000, 1000, 1000, 0, SMALL_ANGLE, IDLE, 1, 1
186, 8371898,   0,   0,   0,   0,   0,   0,   0,   0,   0,   0,   0, 1035, 0.017, 0,   0,  -1,   3, -11,   2, 2036,   0,   0,   0,   0, 1000, 1000, 1000, 1000, 0, SMALL_ANGLE, IDLE, 1, 1
187, 8372907,   0,   0,   0,   0,   0,   0,   0,   0,   0,   0,   0, 1035, 0.017, 0,   0,   0,   3, -11,   2, 2036,   0,   0,   0,   0, 1000, 1000, 1000, 1000, 0, SMALL_ANGLE, IDLE, 1, 1
188, 8373908,   0,   0,   0,   0,   0,   0,   0,   0,   0,   0,   0, 1035, 0.017, 0,   0,   0,   3, -11,   2, 2036,   0,   0,   0,   0, 1000, 1000, 1000, 1000, 0, SMALL_ANGLE, IDLE, 1, 1
189, 8374917,   0,   0,   0,   0,   0,   0,   0,   0,   0,   0,   0, 1035, 0.017, 0,   0,   0,   3, -11,   2, 2036,   0,   0,   0,   0, 1000, 1000, 1000, 1000, 0, SMALL_ANGLE, IDLE, 1, 1
190, 8375924,   0,   0,   0,   0,   0,   0,   0,   0,   0,   0,   0, 1035, 0.017, 0,   0,   0,   3, -11,   2, 2036,   0,   0,   0,   0, 1000, 1000, 1000, 1000, 0, SMALL_ANGLE, IDLE, 1, 1
191, 8376927,   0,   0,   0,   0,   0,   0,   0,   0,   0,   0,   0, 1035, 0.017, 0,  -1,  -1,   3, -11,   2, 2036,   0,   0,   0,   0, 1000, 1000, 1000, 1000, 0, SMALL_ANGLE, IDLE, 1, 1
192, 8377939,   0,   0,   0,   0,   0,   0,   0,   0,   0,   0,   0, 1035, 0.017, 0,  -1,  -1,   2, -11,   2, 2036,   0,   0,   0,   0, 1000, 1000, 1000, 1000, 0, SMALL_ANGLE, IDLE, 1, 1
193, 8379007,   0,   0,   0,   0,   0,   0,   0,   0,   0,   0,   0, 1035, 0.017, 0,  -1,  -1,   1, -11,   2, 2036,   0,   0,   0,   0, 1000, 1000, 1000, 1000, 0, SMALL_ANGLE, IDLE, 1, 1
194, 8380007,   0,   0,   0,   0,   0,   0,   0,   0,   0,   0,   0, 1035, 0.017, 0,  -1,  -1,   0, -11,   2, 2036,   0,   0,   0,   0, 1000, 1000, 1000, 1000, 0, SMALL_ANGLE, IDLE, 1, 1
195, 8381007,   0,   0,   0,   0,   0,   0,   0,   0,   0,   0,   0, 1035, 0.017, 0,  -1,  -1,   0, -11,   2, 2036,   0,   0,   0,   0, 1000, 1000, 1000, 1000, 0, SMALL_ANGLE, IDLE, 1, 1
196, 8382014,   0,   0,   0,   0,   0,   0,   0,   0,   0,   0,   0, 1035, 0.017, 0,  -1,  -1,   0, -11,   2, 2036,   0,   0,   0,   0, 1000, 1000, 1000, 1000, 0, SMALL_ANGLE, IDLE, 1, 1
197, 8383021,   0,   0,   0,   0,   0,   0,   0,   0,   0,   0,   0, 1035, 0.017, 0,  -1,  -1,   0, -11,   2, 2036,   0,   0,   0,   0, 1000, 1000, 1000, 1000, 0, SMALL_ANGLE, IDLE, 1, 1
198, 8384030,   0,   0,   0,   0,   0,   0,   0,   0,   0,   0,   0, 1035, 0.017, 0,  -1,  -1,   0, -11,   2, 2036,   0,   0,   0,   0, 1000, 1000, 1000, 1000, 0, SMALL_ANGLE, IDLE, 1, 1
199, 8385034,   0,   0,   0,   0,   0,   0,   0,   0,   0,   0,   0, 1035, 0.017, 0,   0,  -1,   0, -11,   3, 2035,   0,   0,   0,   0, 1000, 1000, 1000, 1000, 0, SMALL_ANGLE, IDLE, 1, 1
200, 8386041,   0,   0,   0,   0,   0,   0,   0,   0,   0,   0,   0, 1035, 0.017, 0,   0,  -1,   1, -11,   3, 2035,   0,   0,   0,   0, 1000, 1000, 1000, 1000, 0, SMALL_ANGLE, IDLE, 1, 1
201, 8387043,   0,   0,   0,   0,   0,   0,   0,   0,   0,   0,   0, 1035, 0.017, 4,   0,  -2,   1, -11,   3, 2035,   0,   0,   0,   0, 1000, 1000, 1000, 1000, 0, SMALL_ANGLE, IDLE, 1, 1
202, 8388046,   0,   0,   0,   0,   0,   0,   0,   0,   0,   0,   0, 1035, 0.017, 4,   0,  -2,   1, -11,   3, 2035,   0,   0,   0,   0, 1000, 1000, 1000, 1000, 0, SMALL_ANGLE, IDLE, 1, 1
203, 8389053,   0,   0,   0,   0,   0,   0,   0,   0,   0,   0,   0, 1035, 0.017, 4,   0,  -1,   1, -11,   3, 2035,   0,   0,   0,   0, 1000, 1000, 1000, 1000, 0, SMALL_ANGLE, IDLE, 1, 1
204, 8390060,   0,   0,   0,   0,   0,   0,   0,   0,   0,   0,   0, 1035, 0.017, 4,   0,  -2,   1, -11,   3, 2035,   0,   0,   0,   0, 1000, 1000, 1000, 1000, 0, SMALL_ANGLE, IDLE, 1, 1
205, 8391060,   0,   0,   0,   0,   0,   0,   0,   0,   0,   0,   0, 1035, 0.017, 4,   1,  -2,   1, -11,   3, 2034,   0,   0,   0,   0, 1000, 1000, 1000, 1000, 0, SMALL_ANGLE, IDLE, 1, 1
206, 8392068,   0,   0,   0,   0,   0,   0,   0,   0,   0,   0,   0, 1035, 0.017, 4,   1,  -2,   1, -11,   3, 2034,   0,   0,   0,   0, 1000, 1000, 1000, 1000, 0, SMALL_ANGLE, IDLE, 1, 1
207, 8393070,   0,   0,   0,   0,   0,   0,   0,   0,   0,   0,   0, 1035, 0.017, 4,   1,  -2,   1, -11,   3, 2034,   0,   0,   0,   0, 1000, 1000, 1000, 1000, 0, SMALL_ANGLE, IDLE, 1, 1
208, 8394076,   0,   0,   0,   0,   0,   0,   0,   0,   0,   0,   0, 1035, 0.017, 4,   0,  -2,   1, -11,   3, 2034,   0,   0,   0,   0, 1000, 1000, 1000, 1000, 0, SMALL_ANGLE, IDLE, 1, 1
209, 8395085,   0,   0,   0,   0,   0,   0,   0,   0,   0,   0,   0, 1035, 0.017, 4,   1,  -2,   1, -11,   3, 2034,   0,   0,   0,   0, 1000, 1000, 1000, 1000, 0, SMALL_ANGLE, IDLE, 1, 1
210, 8396093,   0,   0,   0,   0,   0,   0,   0,   0,   0,   0,   0, 1035, 0.017, 4,   1,  -1,   1, -11,   3, 2034,   0,   0,   0,   0, 1000, 1000, 1000, 1000, 0, SMALL_ANGLE, IDLE, 1, 1
211, 8397094,   0,   0,   0,   0,   0,   0,   0,   0,   0,   0,   0, 1035, 0.017, 4,   2,  -1,   0, -11,   3, 2033,   0,   0,   0,   0, 1000, 1000, 1000, 1000, 0, SMALL_ANGLE, IDLE, 1, 1
212, 8398097,   0,   0,   0,   0,   0,   0,   0,   0,   0,   0,   0, 1035, 0.017, 4,   2,  -1,   0, -11,   3, 2033,   0,   0,   0,   0, 1000, 1000, 1000, 1000, 0, SMALL_ANGLE, IDLE, 1, 1
213, 8399097,   0,   0,   0,   0,   0,   0,   0,   0,   0,   0,   0, 1035, 0.017, 4,   1,  -1,   1, -11,   3, 2033,   0,   0,   0,   0, 1000, 1000, 1000, 1000, 0, SMALL_ANGLE, IDLE, 1, 1
214, 8400103,   0,   0,   0,   0,   0,   0,   0,   0,   0,   0,   0, 1035, 0.017, 4,   0,  -1,   1, -11,   3, 2033,   0,   0,   0,   0, 1000, 1000, 1000, 1000, 0, SMALL_ANGLE, IDLE, 1, 1
215, 8401103,   0,   0,   0,   0,   0,   0,   0,   0,   0,   0,   0, 1035, 0.017, 4,  -1,  -1,   1, -11,   3, 2033,   0,   0,   0,   0, 1000, 1000, 1000, 1000, 0, SMALL_ANGLE, IDLE, 1, 1
216, 8402105,   0,   0,   0,   0,   0,   0,   0,   0,   0,   0,   0, 1035, 0.017, 4,  -1,  -1,   1, -11,   3, 2033,   0,   0,   0,   0, 1000, 1000, 1000, 1000, 0, SMALL_ANGLE, IDLE, 1, 1
217, 8403113,   0,   0,   0,   0,   0,   0,   0,   0,   0,   0,   0, 1035, 0.017, 4,  -1,   0,   1, -11,   3, 2032,   0,   0,   0,   0, 1000, 1000, 1000, 1000, 0, SMALL_ANGLE, IDLE, 1, 1
218, 8404116,   0,   0,   0,   0,   0,   0,   0,   0,   0,   0,   0, 1035, 0.017, 4,   0,   0,   1, -11,   3, 2032,   0,   0,   0,   0, 1000, 1000, 1000, 1000, 0, SMALL_ANGLE, IDLE, 1, 1
219, 8405122,   0,   0,   0,   0,   0,   0,   0,   0,   0,   0,   0, 1035, 0.017, 4,   1,   0,   1, -11,   3, 2032,   0,   0,   0,   0, 1000, 1000, 1000, 1000, 0, SMALL_ANGLE, IDLE, 1, 1
220, 8406122,   0,   0,   0,   0,   0,   0,   0,   0,   0,   0,   0, 1035, 0.017, 4,   1,  -1,   1, -11,   3, 2032,   0,   0,   0,   0, 1000, 1000, 1000, 1000, 0, SMALL_ANGLE, IDLE, 1, 1
221, 8407130,   0,   0,   0,   0,   0,   0,   0,   0,   0,   0,   0, 1035, 0.000, 4,   1,  -1,   1, -11,   3, 2032,   0,   0,   0,   0, 1000, 1000, 1000, 1000, 0, SMALL_ANGLE, IDLE, 1, 1
222, 8408138,   0,   0,   0,   0,   0,   0,   0,   0,   0,   0,   0, 1035, 0.000, 4,   0,   0,   1, -11,   3, 2032,   0,   0,   0,   0, 1000, 1000, 1000, 1000, 0, SMALL_ANGLE, IDLE, 1, 1
223, 8409141,   0,   0,   0,   0,   0,   0,   0,   0,   0,   0,   0, 1035, 0.000, 4,   0,   0,   1, -11,   2, 2032,   0,   0,   0,   0, 1000, 1000, 1000, 1000, 0, SMALL_ANGLE, IDLE, 1, 1
224, 8410144,   0,   0,   0,   0,   0,   0,   0,   0,   0,   0,   0, 1035, 0.000, 4,   0,   0,   1, -11,   2, 2032,   0,   0,   0,   0, 1000, 1000, 1000, 1000, 0, SMALL_ANGLE, IDLE, 1, 1
225, 8411144,   0,   0,   0,   0,   0,   0,   0,   0,   0,   0,   0, 1035, 0.000, 4,   0,   0,   0, -11,   2, 2032,   0,   0,   0,   0, 1000, 1000, 1000, 1000, 0, SMALL_ANGLE, IDLE, 1, 1
226, 8412147,   0,   0,   0,   0,   0,   0,   0,   0,   0,   0,   0, 1035, 0.000, 6,  -1,   0,   0, -11,   2, 2033,   0,   0,   0,   0, 1000, 1000, 1000, 1000, 0, SMALL_ANGLE, IDLE, 1, 1
227, 8413149,   0,   0,   0,   0,   0,   0,   0,   0,   0,   0,   0, 1035, 0.000, 6,  -1,  -1,   1, -11,   2, 2033,   0,   0,   0,   0, 1000, 1000, 1000, 1000, 0, SMALL_ANGLE, IDLE, 1, 1
228, 8414152,   0,   0,   0,   0,   0,   0,   0,   0,   0,   0,   0, 1035, 0.000, 6,  -1,  -2,   1, -11,   2, 2033,   0,   0,   0,   0, 1000, 1000, 1000, 1000, 0, SMALL_ANGLE, IDLE, 1, 1
229, 8415169,   0,   0,   0,   0,   0,   0,   0,   0,   0,   0,   0, 1035, 0.000, 6,  -1,  -2,   2, -11,   2, 2033,   0,   0,   0,   0, 1000, 1000, 1000, 1000, 0, SMALL_ANGLE, IDLE, 1, 1
230, 8416172,   0,   0,   0,   0,   0,   0,   0,   0,   0,   0,   0, 1035, 0.000, 6,  -1,  -3,   1, -11,   2, 2033,   0,   0,   0,   0, 1000, 1000, 1000, 1000, 0, SMALL_ANGLE, IDLE, 1, 1
231, 8417176,   0,   0,   0,   0,   0,   0,   0,   0,   0,   0,   0, 1035, 0.000, 6,  -1,  -3,   1, -11,   2, 2033,   0,   0,   0,   0, 1000, 1000, 1000, 1000, 0, SMALL_ANGLE, IDLE, 1, 1
232, 8418179,   0,   0,   0,   0,   0,   0,   0,   0,   0,   0,   0, 1035, 0.000, 6,   0,  -3,   1, -11,   2, 2034,   0,   0,   0,   0, 1000, 1000, 1000, 1000, 0, SMALL_ANGLE, IDLE, 1, 1
233, 8419184,   0,   0,   0,   0,   0,   0,   0,   0,   0,   0,   0, 1035, 0.000, 6,   0,  -3,   1, -11,   2, 2034,   0,   0,   0,   0, 1000, 1000, 1000, 1000, 0, SMALL_ANGLE, IDLE, 1, 1
234, 8420189,   0,   0,   0,   0,   0,   0,   0,   0,   0,   0,   0, 1035, 0.000, 6,   0,  -3,   1, -11,   2, 2034,   0,   0,   0,   0, 1000, 1000, 1000, 1000, 0, SMALL_ANGLE, IDLE, 1, 1
235, 8421191,   0,   0,   0,   0,   0,   0,   0,   0,   0,   0,   0, 1035, 0.000, 6,   0,  -3,   1, -11,   1, 2034,   0,   0,   0,   0, 1000, 1000, 1000, 1000, 0, SMALL_ANGLE, IDLE, 1, 1
236, 8422191,   0,   0,   0,   0,   0,   0,   0,   0,   0,   0,   0, 1035, 0.000, 6,  -1,  -3,   1, -11,   1, 2034,   0,   0,   0,   0, 1000, 1000, 1000, 1000, 0, SMALL_ANGLE, IDLE, 1, 1
237, 8423199,   0,   0,   0,   0,   0,   0,   0,   0,   0,   0,   0, 1035, 0.000, 6,  -1,  -3,   0, -11,   1, 2034,   0,   0,   0,   0, 1000, 1000, 1000, 1000, 0, SMALL_ANGLE, IDLE, 1, 1
238, 8424199,   0,   0,   0,   0,   0,   0,   0,   0,   0,   0,   0, 1035, 0.000, 6,  -1,  -2,   0, -12,   1, 2034,   0,   0,   0,   0, 1000, 1000, 1000, 1000, 0, SMALL_ANGLE, IDLE, 1, 1
239, 8425208,   0,   0,   0,   0,   0,   0,   0,   0,   0,   0,   0, 1035, 0.000, 6,  -1,  -2,   0, -12,   1, 2034,   0,   0,   0,   0, 1000, 1000, 1000, 1000, 0, SMALL_ANGLE, IDLE, 1, 1
240, 8426215,   0,   0,   0,   0,   0,   0,   0,   0,   0,   0,   0, 1035, 0.000, 6,   0,  -2,   0, -12,   1, 2034,   0,   0,   0,   0, 1000, 1000, 1000, 1000, 0, SMALL_ANGLE, IDLE, 1, 1
241, 8427225,   0,   0,   0,   0,   0,   0,   0,   0,   0,   0,   0, 1035, 0.000, 6,   0,  -2,   0, -12,   1, 2034,   0,   0,   0,   0, 1000, 1000, 1000, 1000, 0, SMALL_ANGLE, IDLE, 1, 1
242, 8428226,   0,   0,   0,   0,   0,   0,   0,   0,   0,   0,   0, 1035, 0.000, 6,   0,  -2,   0, -12,   1, 2034,   0,   0,   0,   0, 1000, 1000, 1000, 1000, 0, SMALL_ANGLE, IDLE, 1, 1
243, 8429226,   0,   0,   0,   0,   0,   0,   0,   0,   0,   0,   0, 1035, 0.000, 6,   1,  -2,   0, -12,   1, 2034,   0,   0,   0,   0, 1000, 1000, 1000, 1000, 0, SMALL_ANGLE, IDLE, 1, 1
244, 8430233,   0,   0,   0,   0,   0,   0,   0,   0,   0,   0,   0, 1035, 0.000, 6,   1,  -2,  -1, -12,   1, 2034,   0,   0,   0,   0, 1000, 1000, 1000, 1000, 0, SMALL_ANGLE, IDLE, 1, 1
245, 8431238,   0,   0,   0,   0,   0,   0,   0,   0,   0,   0,   0, 1035, 0.000, 6,   1,  -1,  -1, -12,   1, 2034,   0,   0,   0,   0, 1000, 1000, 1000, 1000, 0, SMALL_ANGLE, IDLE, 1, 1
246, 8432242,   0,   0,   0,   0,   0,   0,   0,   0,   0,   0,   0, 1035, 0.000, 6,   1,  -1,  -2, -12,   1, 2034,   0,   0,   0,   0, 1000, 1000, 1000, 1000, 0, SMALL_ANGLE, IDLE, 1, 1
247, 8433242,   0,   0,   0,   0,   0,   0,   0,   0,   0,   0,   0, 1035, 0.000, 6,   1,   0,  -2, -12,   1, 2034,   0,   0,   0,   0, 1000, 1000, 1000, 1000, 0, SMALL_ANGLE, IDLE, 1, 1
248, 8434246,   0,   0,   0,   0,   0,   0,   0,   0,   0,   0,   0, 1035, 0.000, 6,   0,   0,  -2, -12,   1, 2034,   0,   0,   0,   0, 1000, 1000, 1000, 1000, 0, SMALL_ANGLE, IDLE, 1, 1
249, 8435250,   0,   0,   0,   0,   0,   0,   0,   0,   0,   0,   0, 1035, 0.000, 6,   0,   0,  -2, -12,   1, 2034,   0,   0,   0,   0, 1000, 1000, 1000, 1000, 0, SMALL_ANGLE, IDLE, 1, 1
250, 8436250,   0,   0,   0,   0,   0,   0,   0,   0,   0,   0,   0, 1035, 0.000, 6,   0,   1,  -2, -12,   1, 2034,   0,   0,   0,   0, 1000, 1000, 1000, 1000, 0, SMALL_ANGLE, IDLE, 1, 1
251, 8437283,   0,   0,   0,   0,   0,   0,   0,   0,   0,   0,   0, 1035, 0.000, 7,  -1,   1,  -2, -12,   1, 2034,   0,   0,   0,   0, 1000, 1000, 1000, 1000, 0, SMALL_ANGLE, IDLE, 1, 1
252, 8438289,   0,   0,   0,   0,   0,   0,   0,   0,   0,   0,   0, 1035, 0.000, 7,  -1,   0,  -2, -12,   1, 2034,   0,   0,   0,   0, 1000, 1000, 1000, 1000, 0, SMALL_ANGLE, IDLE, 1, 1
253, 8439290,   0,   0,   0,   0,   0,   0,   0,   0,   0,   0,   0, 1035, 0.000, 7,  -1,   0,  -1, -12,   1, 2034,   0,   0,   0,   0, 1000, 1000, 1000, 1000, 0, SMALL_ANGLE, IDLE, 1, 1
254, 8440291,   0,   0,   0,   0,   0,   0,   0,   0,   0,   0,   0, 1035, 0.000, 7,  -2,  -1,  -1, -12,   1, 2034,   0,   0,   0,   0, 1000, 1000, 1000, 1000, 0, SMALL_ANGLE, IDLE, 1, 1
255, 8441296,   0,   0,   0,   0,   0,   0,   0,   0,   0,   0,   0, 1035, 0.000, 7,  -2,  -1,   0, -12,   1, 2034,   0,   0,   0,   0, 1000, 1000, 1000, 1000, 0, SMALL_ANGLE, IDLE, 1, 1
256, 8442297,   0,   0,   0,   0,   0,   0,   0,   0,   0,   0,   0, 1035, 0.000, 7,  -2,   0,   1, -12,   1, 2035,   0,   0,   0,   0, 1000, 1000, 1000, 1000, 0, SMALL_ANGLE, IDLE, 1, 1
257, 8443306,   0,   0,   0,   0,   0,   0,   0,   0,   0,   0,   0, 1035, 0.000, 7,  -2,   0,   1, -12,   1, 2035,   0,   0,   0,   0, 1000, 1000, 1000, 1000, 0, SMALL_ANGLE, IDLE, 1, 1
258, 8444312,   0,   0,   0,   0,   0,   0,   0,   0,   0,   0,   0, 1035, 0.000, 7,  -2,   1,   2, -12,   1, 2035,   0,   0,   0,   0, 1000, 1000, 1000, 1000, 0, SMALL_ANGLE, IDLE, 1, 1
259, 8445320,   0,   0,   0,   0,   0,   0,   0,   0,   0,   0,   0, 1035, 0.000, 7,  -2,   1,   2, -12,   2, 2035,   0,   0,   0,   0, 1000, 1000, 1000, 1000, 0, SMALL_ANGLE, IDLE, 1, 1
260, 8446326,   0,   0,   0,   0,   0,   0,   0,   0,   0,   0,   0, 1035, 0.000, 7,  -2,   1,   2, -12,   2, 2035,   0,   0,   0,   0, 1000, 1000, 1000, 1000, 0, SMALL_ANGLE, IDLE, 1, 1
261, 8447334,   0,   0,   0,   0,   0,   0,   0,   0,   0,   0,   0, 1035, 0.000, 7,  -2,   1,   3, -12,   2, 2035,   0,   0,   0,   0, 1000, 1000, 1000, 1000, 0, SMALL_ANGLE, IDLE, 1, 1
262, 8448339,   0,   0,   0,   0,   0,   0,   0,   0,   0,   0,   0, 1035, 0.000, 7,  -1,   0,   3, -12,   2, 2035,   0,   0,   0,   0, 1000, 1000, 1000, 1000, 0, SMALL_ANGLE, IDLE, 1, 1
263, 8449343,   0,   0,   0,   0,   0,   0,   0,   0,   0,   0,   0, 1035, 0.000, 7,  -1,  -1,   3, -12,   2, 2035,   0,   0,   0,   0, 1000, 1000, 1000, 1000, 0, SMALL_ANGLE, IDLE, 1, 1
264, 8450345,   0,   0,   0,   0,   0,   0,   0,   0,   0,   0,   0, 1035, 0.000, 7,  -1,  -2,   3, -12,   2, 2035,   0,   0,   0,   0, 1000, 1000, 1000, 1000, 0, SMALL_ANGLE, IDLE, 1, 1
265, 8451348,   0,   0,   0,   0,   0,   0,   0,   0,   0,   0,   0, 1035, 0.000, 7,  -1,  -2,   3, -12,   2, 2035,   0,   0,   0,   0, 1000, 1000, 1000, 1000, 0, SMALL_ANGLE, IDLE, 1, 1
266, 8452351,   0,   0,   0,   0,   0,   0,   0,   0,   0,   0,   0, 1035, 0.000, 7,  -1,  -3,   2, -12,   2, 2035,   0,   0,   0,   0, 1000, 1000, 1000, 1000, 0, SMALL_ANGLE, IDLE, 1, 1
267, 8453353,   0,   0,   0,   0,   0,   0,   0,   0,   0,   0,   0, 1035, 0.000, 7,  -1,  -2,   2, -12,   2, 2035,   0,   0,   0,   0, 1000, 1000, 1000, 1000, 0, SMALL_ANGLE, IDLE, 1, 1
268, 8454359,   0,   0,   0,   0,   0,   0,   0,   0,   0,   0,   0, 1035, 0.000, 7,  -1,  -2,   1, -12,   2, 2035,   0,   0,   0,   0, 1000, 1000, 1000, 1000, 0, SMALL_ANGLE, IDLE, 1, 1
269, 8455363,   0,   0,   0,   0,   0,   0,   0,   0,   0,   0,   0, 1035, 0.000, 7,  -1,  -2,   1, -12,   2, 2035,   0,   0,   0,   0, 1000, 1000, 1000, 1000, 0, SMALL_ANGLE, IDLE, 1, 1
270, 8456365,   0,   0,   0,   0,   0,   0,   0,   0,   0,   0,   0, 1035, 0.000, 7,  -1,  -2,   0, -12,   2, 2035,   0,   0,   0,   0, 1000, 1000, 1000, 1000, 0, SMALL_ANGLE, IDLE, 1, 1
271, 8457370,   0,   0,   0,   0,   0,   0,   0,   0,   0,   0,   0, 1035, 0.000, 7,   0,  -1,   0, -12,   2, 2035,   0,   0,   0,   0, 1000, 1000, 1000, 1000, 0, SMALL_ANGLE, IDLE, 1, 1
272, 8458372,   0,   0,   0,   0,   0,   0,   0,   0,   0,   0,   0, 1035, 0.000, 7,   1,  -1,  -1, -12,   2, 2035,   0,   0,   0,   0, 1000, 1000, 1000, 1000, 0, SMALL_ANGLE, IDLE, 1, 1
273, 8459379,   0,   0,   0,   0,   0,   0,   0,   0,   0,   0,   0, 1035, 0.000, 7,   2,   0,   0, -12,   2, 2035,   0,   0,   0,   0, 1000, 1000, 1000, 1000, 0, SMALL_ANGLE, IDLE, 1, 1
274, 8460428,   0,   0,   0,   0,   0,   0,   0,   0,   0,   0,   0, 1035, 0.000, 7,   2,   0,   0, -12,   2, 2035,   0,   0,   0,   0, 1000, 1000, 1000, 1000, 0, SMALL_ANGLE, IDLE, 1, 1
275, 8461433,   0,   0,   0,   0,   0,   0,   0,   0,   0,   0,   0, 1035, 0.000, 7,   3,   0,   0, -12,   2, 2035,   0,   0,   0,   0, 1000, 1000, 1000, 1000, 0, SMALL_ANGLE, IDLE, 1, 1
276, 8462436,   0,   0,   0,   0,   0,   0,   0,   0,   0,   0,   0, 1035, 0.000, 8,   2,   0,   0, -12,   2, 2035,   0,   0,   0,   0, 1000, 1000, 1000, 1000, 0, SMALL_ANGLE, IDLE, 1, 1
277, 8463438,   0,   0,   0,   0,   0,   0,   0,   0,   0,   0,   0, 1035, 0.000, 8,   2,   0,   0, -12,   2, 2035,   0,   0,   0,   0, 1000, 1000, 1000, 1000, 0, SMALL_ANGLE, IDLE, 1, 1
278, 8464440,   0,   0,   0,   0,   0,   0,   0,   0,   0,   0,   0, 1035, 0.000, 8,   1,  -1,   1, -12,   2, 2035,   0,   0,   0,   0, 1000, 1000, 1000, 1000, 0, SMALL_ANGLE, IDLE, 1, 1
279, 8465443,   0,   0,   0,   0,   0,   0,   0,   0,   0,   0,   0, 1035, 0.000, 8,   1,  -1,   1, -12,   2, 2035,   0,   0,   0,   0, 1000, 1000, 1000, 1000, 0, SMALL_ANGLE, IDLE, 1, 1
280, 8466446,   0,   0,   0,   0,   0,   0,   0,   0,   0,   0,   0, 1035, 0.000, 8,   1,  -1,   2, -12,   2, 2035,   0,   0,   0,   0, 1000, 1000, 1000, 1000, 0, SMALL_ANGLE, IDLE, 1, 1
281, 8467456,   0,   0,   0,   0,   0,   0,   0,   0,   0,   0,   0, 1035, 0.000, 8,   0,  -1,   2, -12,   2, 2035,   0,   0,   0,   0, 1000, 1000, 1000, 1000, 0, SMALL_ANGLE, IDLE, 1, 1
282, 8468459,   0,   0,   0,   0,   0,   0,   0,   0,   0,   0,   0, 1035, 0.000, 8,   0,  -1,   2, -12,   2, 2035,   0,   0,   0,   0, 1000, 1000, 1000, 1000, 0, SMALL_ANGLE, IDLE, 1, 1
283, 8469466,   0,   0,   0,   0,   0,   0,   0,   0,   0,   0,   0, 1035, 0.000, 8,   0,  -1,   2, -12,   2, 2034,   0,   0,   0,   0, 1000, 1000, 1000, 1000, 0, SMALL_ANGLE, IDLE, 1, 1
284, 8470466,   0,   0,   0,   0,   0,   0,   0,   0,   0,   0,   0, 1035, 0.000, 8,   0,  -2,   1, -12,   2, 2034,   0,   0,   0,   0, 1000, 1000, 1000, 1000, 0, SMALL_ANGLE, IDLE, 1, 1
285, 8471467,   0,   0,   0,   0,   0,   0,   0,   0,   0,   0,   0, 1035, 0.000, 8,   0,  -1,   0, -12,   2, 2034,   0,   0,   0,   0, 1000, 1000, 1000, 1000, 0, SMALL_ANGLE, IDLE, 1, 1
286, 8472467,   0,   0,   0,   0,   0,   0,   0,   0,   0,   0,   0, 1035, 0.000, 8,   0,  -1,   0, -12,   2, 2034,   0,   0,   0,   0, 1000, 1000, 1000, 1000, 0, SMALL_ANGLE, IDLE, 1, 1
287, 8473471,   0,   0,   0,   0,   0,   0,   0,   0,   0,   0,   0, 1035, 0.000, 8,   0,  -1,  -1, -12,   2, 2034,   0,   0,   0,   0, 1000, 1000, 1000, 1000, 0, SMALL_ANGLE, IDLE, 1, 1
288, 8474472,   0,   0,   0,   0,   0,   0,   0,   0,   0,   0,   0, 1035, 0.000, 8,   0,  -1,   0, -12,   2, 2034,   0,   0,   0,   0, 1000, 1000, 1000, 1000, 0, SMALL_ANGLE, IDLE, 1, 1
289, 8475472,   0,   0,   0,   0,   0,   0,   0,   0,   0,   0,   0, 1035, 0.000, 8,   0,  -1,   0, -12,   2, 2034,   0,   0,   0,   0, 1000, 1000, 1000, 1000, 0, SMALL_ANGLE, IDLE, 1, 1
290, 8476474,   0,   0,   0,   0,   0,   0,   0,   0,   0,   0,   0, 1035, 0.000, 8,  -1,  -1,   0, -12,   2, 2034,   0,   0,   0,   0, 1000, 1000, 1000, 1000, 0, SMALL_ANGLE, IDLE, 1, 1
291, 8477481,   0,   0,   0,   0,   0,   0,   0,   0,   0,   0,   0, 1035, 0.000, 8,  -2,  -1,   0, -12,   2, 2034,   0,   0,   0,   0, 1000, 1000, 1000, 1000, 0, SMALL_ANGLE, IDLE, 1, 1
292, 8478483,   0,   0,   0,   0,   0,   0,   0,   0,   0,   0,   0, 1035, 0.000, 8,  -2,  -1,   0, -12,   2, 2034,   0,   0,   0,   0, 1000, 1000, 1000, 1000, 0, SMALL_ANGLE, IDLE, 1, 1
293, 8479484,   0,   0,   0,   0,   0,   0,   0,   0,   0,   0,   0, 1035, 0.000, 8,  -2,  -1,   0, -12,   2, 2034,   0,   0,   0,   0, 1000, 1000, 1000, 1000, 0, SMALL_ANGLE, IDLE, 1, 1
294, 8480492,   0,   0,   0,   0,   0,   0,   0,   0,   0,   0,   0, 1035, 0.000, 8,  -2,  -1,   1, -12,   2, 2034,   0,   0,   0,   0, 1000, 1000, 1000, 1000, 0, SMALL_ANGLE, IDLE, 1, 1
295, 8481494,   0,   0,   0,   0,   0,   0,   0,   0,   0,   0,   0, 1035, 0.000, 8,  -1,  -1,   1, -12,   2, 2033,   0,   0,   0,   0, 1000, 1000, 1000, 1000, 0, SMALL_ANGLE, IDLE, 1, 1
296, 8482497,   0,   0,   0,   0,   0,   0,   0,   0,   0,   0,   0, 1035, 0.000, 8,  -1,  -1,   1, -12,   2, 2033,   0,   0,   0,   0, 1000, 1000, 1000, 1000, 0, SMALL_ANGLE, IDLE, 1, 1
297, 8483517,   0,   0,   0,   0,   0,   0,   0,   0,   0,   0,   0, 1035, 0.000, 8,  -1,  -1,   1, -12,   2, 2033,   0,   0,   0,   0, 1000, 1000, 1000, 1000, 0, SMALL_ANGLE, IDLE, 1, 1
298, 8484517,   0,   0,   0,   0,   0,   0,   0,   0,   0,   0,   0, 1035, 0.000, 8,   0,  -1,   0, -12,   3, 2033,   0,   0,   0,   0, 1000, 1000, 1000, 1000, 0, SMALL_ANGLE, IDLE, 1, 1
299, 8485517,   0,   0,   0,   0,   0,   0,   0,   0,   0,   0,   0, 1035, 0.000, 8,   1,  -1,   0, -12,   3, 2033,   0,   0,   0,   0, 1000, 1000, 1000, 1000, 0, SMALL_ANGLE, IDLE, 1, 1
300, 8486519,   0,   0,   0,   0,   0,   0,   0,   0,   0,   0,   0, 1035, 0.000, 8,   1,   0,  -1, -12,   3, 2033,   0,   0,   0,   0, 1000, 1000, 1000, 1000, 0, SMALL_ANGLE, IDLE, 1, 1
301, 8487662,   0,   0,   0,   0,   0,   0,   0,   0,   0,   0,   0, 1035, 0.000, 8,   1,   0,  -2, -12,   3, 2032,   0,   0,   0,   0, 1000, 1000, 1000, 1000, 0, SMALL_ANGLE, IDLE, 1, 1
302, 8488666,   0,   0,   0,   0,   0,   0,   0,   0,   0,   0,   0, 1035, 0.000, 8,   1,   0,  -2, -12,   3, 2032,   0,   0,   0,   0, 1000, 1000, 1000, 1000, 0, SMALL_ANGLE, IDLE, 1, 1
303, 8489666,   0,   0,   0,   0,   0,   0,   0,   0,   0,   0,   0, 1035, 0.000, 8,   1,   0,  -2, -12,   3, 2032,   0,   0,   0,   0, 1000, 1000, 1000, 1000, 0, SMALL_ANGLE, IDLE, 1, 1
304, 8490669,   0,   0,   0,   0,   0,   0,   0,   0,   0,   0,   0, 1035, 0.000, 8,   1,   0,  -2, -12,   2, 2032,   0,   0,   0,   0, 1000, 1000, 1000, 1000, 0, SMALL_ANGLE, IDLE, 1, 1
305, 8491669,   0,   0,   0,   0,   0,   0,   0,   0,   0,   0,   0, 1035, 0.000, 8,   1,  -1,  -1, -12,   2, 2032,   0,   0,   0,   0, 1000, 1000, 1000, 1000, 0, SMALL_ANGLE, IDLE, 1, 1
306, 8492674,   0,   0,   0,   0,   0,   0,   0,   0,   0,   0,   0, 1035, 0.000, 8,   1,  -1,   0, -12,   2, 2032,   0,   0,   0,   0, 1000, 1000, 1000, 1000, 0, SMALL_ANGLE, IDLE, 1, 1
307, 8493682,   0,   0,   0,   0,   0,   0,   0,   0,   0,   0,   0, 1035, 0.000, 8,   1,  -2,   0, -12,   2, 2032,   0,   0,   0,   0, 1000, 1000, 1000, 1000, 0, SMALL_ANGLE, IDLE, 1, 1
308, 8494686,   0,   0,   0,   0,   0,   0,   0,   0,   0,   0,   0, 1035, 0.000, 8,   1,  -2,   0, -12,   2, 2032,   0,   0,   0,   0, 1000, 1000, 1000, 1000, 0, SMALL_ANGLE, IDLE, 1, 1
309, 8495694,   0,   0,   0,   0,   0,   0,   0,   0,   0,   0,   0, 1035, 0.000, 8,   1,  -2,   0, -12,   2, 2032,   0,   0,   0,   0, 1000, 1000, 1000, 1000, 0, SMALL_ANGLE, IDLE, 1, 1
310, 8496702,   0,   0,   0,   0,   0,   0,   0,   0,   0,   0,   0, 1035, 0.000, 8,   0,  -2,  -1, -12,   2, 2031,   0,   0,   0,   0, 1000, 1000, 1000, 1000, 0, SMALL_ANGLE, IDLE, 1, 1
311, 8497709,   0,   0,   0,   0,   0,   0,   0,   0,   0,   0,   0, 1035, 0.000, 8,   0,  -2,  -2, -12,   2, 2031,   0,   0,   0,   0, 1000, 1000, 1000, 1000, 0, SMALL_ANGLE, IDLE, 1, 1
312, 8498711,   0,   0,   0,   0,   0,   0,   0,   0,   0,   0,   0, 1035, 0.000, 8,   0,  -2,  -2, -12,   2, 2031,   0,   0,   0,   0, 1000, 1000, 1000, 1000, 0, SMALL_ANGLE, IDLE, 1, 1
313, 8499717,   0,   0,   0,   0,   0,   0,   0,   0,   0,   0,   0, 1035, 0.000, 8,   0,  -3,  -2, -12,   2, 2031,   0,   0,   0,   0, 1000, 1000, 1000, 1000, 0, SMALL_ANGLE, IDLE, 1, 1
314, 8500724,   0,   0,   0,   0,   0,   0,   0,   0,   0,   0,   0, 1035, 0.000, 8,   0,  -3,  -1, -12,   2, 2031,   0,   0,   0,   0, 1000, 1000, 1000, 1000, 0, SMALL_ANGLE, IDLE, 1, 1
315, 8501734,   0,   0,   0,   0,   0,   0,   0,   0,   0,   0,   0, 1035, 0.000, 8,  -1,  -3,   0, -12,   2, 2031,   0,   0,   0,   0, 1000, 1000, 1000, 1000, 0, SMALL_ANGLE, IDLE, 1, 1
316, 8502737,   0,   0,   0,   0,   0,   0,   0,   0,   0,   0,   0, 1035, 0.000, 8,  -1,  -2,   0, -12,   2, 2031,   0,   0,   0,   0, 1000, 1000, 1000, 1000, 0, SMALL_ANGLE, IDLE, 1, 1
317, 8503737,   0,   0,   0,   0,   0,   0,   0,   0,   0,   0,   0, 1035, 0.000, 8,  -1,  -2,   0, -12,   2, 2031,   0,   0,   0,   0, 1000, 1000, 1000, 1000, 0, SMALL_ANGLE, IDLE, 1, 1
